merchant_id,nombre_comercio,segmento_comercial,tipo_negocio_ciiu,tipo_negocio_desc,fecha_onboarding,fecha_ultima_transaccion,region,ciudad,latitud,longitud,ejecutivo_cuenta
DEU-260D26B5,Doña Pancho Mini,Mediana,G4721.01,Fruterías y mercados,2022-01-22,2026-03-01,Guayas,Guayaquil,-2.198697,-79.914427,Esteban Ruiz
DEU-CECA49B1,Super Kléber Mini,Micro,G4711.01,Tiendas de abarrotes y víveres,2021-12-26,2026-03-17,Pichincha,Quito,-0.162052,-78.45836,Auto-gestionado
DEU-228A1878,El Martita Mini,Micro,I5630.01,Cafeterías y panaderías,2025-04-09,2026-03-30,Pichincha,Quito,-0.223245,-78.477198,Auto-gestionado
DEU-7EF8AE77,Mi Rosita,Mediana,I5610.02,Comida rápida y food trucks,2023-01-05,2026-02-17,Guayas,Guayaquil,-2.160475,-79.901588,Oswaldo Ñacato
DEU-85F483DF,Tía Juanito Express,Micro,G4711.01,Tiendas de abarrotes y víveres,2022-06-30,2026-03-31,Loja,Loja,-4.056037,-79.063118,Esteban Ruiz
DEU-191089FE,La Carmita Market,Micro,I5610.02,Comida rápida y food trucks,2021-09-21,2026-03-23,Pichincha,Quito,-0.15486,-78.579273,Auto-gestionado
DEU-E0DC839E,El Martita Plus,Micro,I5610.01,Restaurantes y picanterías,2025-12-25,2026-03-11,Cotopaxi,Latacunga,-0.872557,-78.403019,Auto-gestionado
DEU-FAF01E32,Farmacia Sana Express,Mediana,G4774.01,Farmacias y artículos médicos,2022-01-06,2026-03-23,Azuay,Cuenca,-2.923926,-79.032097,Andrea Vásconez
DEU-469E4066,Mi Rosita,Micro,G4773.01,Bazares y papelerías,2024-01-28,2026-03-25,Pichincha,Quito,-0.09822,-78.393298,Auto-gestionado
DEU-8D854ACB,Tía Carmita,Micro,I5610.01,Restaurantes y picanterías,2023-09-23,2026-03-16,Los Ríos,Babahoyo,-1.816119,-79.567031,Andrea Vásconez
DEU-8D022377,Tía Carmita Center,Mediana,G4773.01,Bazares y papelerías,2023-01-15,2026-03-13,Guayas,Guayaquil,-2.194244,-79.902795,Kevin Jaramillo
DEU-B89F7FB1,Mi Manuelito Express,Micro,G4711.01,Tiendas de abarrotes y víveres,2024-11-27,2026-03-27,Pichincha,Quito,-0.2942,-78.384401,Auto-gestionado
DEU-45F66F3D,Tía Manuelito Plus,Micro,G4711.01,Tiendas de abarrotes y víveres,2025-12-09,2026-03-16,El Oro,Machala,-3.322779,-79.995541,Mateo Pérez
DEU-9CD39FD0,Doña Beto,Micro,C1071.01,Panaderías y pastelerías,2023-11-27,2026-03-27,Pichincha,Quito,-0.242623,-78.496582,Auto-gestionado
DEU-FB07771A,El Segundo,Micro,I5610.01,Restaurantes y picanterías,2023-09-10,2026-03-27,Pichincha,Quito,-0.170539,-78.567755,Auto-gestionado
DEU-19491B20,Farmacia Salud,Micro,G4774.01,Farmacias y artículos médicos,2023-03-31,2026-03-14,Pichincha,Quito,-0.233719,-78.479518,Fernanda Ortiz
DEU-BF2DB0FB,Farmacia Central Plus,Micro,G4774.01,Farmacias y artículos médicos,2023-11-27,2026-03-27,Pichincha,Quito,-0.233435,-78.467485,Auto-gestionado
DEU-1054C83F,Super Mayra,Mediana,I5610.01,Restaurantes y picanterías,2022-09-23,2026-03-25,Guayas,Guayaquil,-2.142329,-79.903602,Esteban Ruiz
DEU-A4C11302,Super Chabela Plus,Micro,G4773.01,Bazares y papelerías,2024-09-10,2026-03-02,Morona Santiago,Macas,-2.343924,-78.089542,Auto-gestionado
DEU-B4AEC648,Coop. Los Andes Plus,Micro,H4922.01,"Transporte (taxis, cooperativas)",2025-06-18,2026-03-21,Pichincha,Quito,-0.238324,-78.489395,Lorena Dávila
DEU-3BD442B6,Tío Chabela Mini,Micro,I5610.03,Bares y cantinas,2024-10-25,2026-03-19,Guayas,Guayaquil,-2.19944,-79.87791,Auto-gestionado
DEU-B34C1A8F,Doña Martita,Micro,G4719.01,Comercio mixto (bazar + abarrote),2023-05-08,2026-03-12,Pichincha,Quito,-0.159909,-78.405254,Iván Moreno
DEU-801DF294,Tío Juanito,Pequeña,C1071.01,Panaderías y pastelerías,2023-12-09,2026-02-05,Guayas,Guayaquil,-2.1282,-79.83297,Carlos Mendoza
DEU-3CDFF0F9,Boutique Pedrito,Micro,G4771.01,Boutiques y ropa,2024-03-27,2026-03-26,Pichincha,Quito,-0.276004,-78.415276,Iván Moreno
DEU-82105BD4,Farmacia Salud,Micro,G4774.01,Farmacias y artículos médicos,2023-03-30,2026-02-05,Los Ríos,Babahoyo,-1.821531,-79.594499,Auto-gestionado
DEU-A1ECC98C,Coop. 24 de Mayo Mini,Micro,H4922.01,"Transporte (taxis, cooperativas)",2023-03-13,2026-03-12,Esmeraldas,Esmeraldas,1.177954,-79.646399,Auto-gestionado
DEU-A59DB6D0,El Rosita,Micro,G4711.01,Tiendas de abarrotes y víveres,2021-11-15,2026-03-23,Pichincha,Quito,-0.198577,-78.41068,Diana Cárdenas
DEU-528B4107,El Juanito Express,Micro,I5610.01,Restaurantes y picanterías,2023-05-16,2026-03-24,Morona Santiago,Macas,-2.35725,-78.184882,Diana Cárdenas
DEU-1FCCB7AB,El Beto Market,Micro,S9602.01,Peluquerías y salones de belleza,2024-09-11,2026-03-13,Azuay,Cuenca,-2.815506,-79.001791,Auto-gestionado
DEU-8AD52343,El Fanny Express,Micro,G4773.01,Bazares y papelerías,2024-08-25,2026-03-13,Guayas,Guayaquil,-2.129696,-79.614181,Mateo Pérez
DEU-B53621BC,Farmacia Vida Plus,Micro,G4774.01,Farmacias y artículos médicos,2023-02-26,2026-01-30,Santo Domingo,Santo Domingo,-0.101236,-79.225364,Kevin Jaramillo
DEU-789737D7,Super Jorgito Mini,Micro,G4773.01,Bazares y papelerías,2024-10-08,2026-03-28,Pichincha,Quito,-0.25215,-78.494585,Auto-gestionado
DEU-8F91CC3E,La Fanny,Micro,I5630.01,Cafeterías y panaderías,2024-12-22,2026-03-21,Pichincha,Quito,-0.009184,-78.417086,Auto-gestionado
DEU-9B495BF2,El Beto,Micro,I5610.02,Comida rápida y food trucks,2022-02-26,2026-03-27,Loja,Loja,-4.069646,-79.078396,Auto-gestionado
DEU-BAE01575,El Gladys Mini,Micro,I5610.01,Restaurantes y picanterías,2023-04-01,2026-03-25,Tungurahua,Ambato,-1.079228,-78.534103,Jimena Salazar
DEU-764435D8,Doña Manuelito Mini,Micro,G4711.01,Tiendas de abarrotes y víveres,2023-06-19,2026-03-16,Guayas,Guayaquil,-2.114973,-79.874408,Auto-gestionado
DEU-C605B191,La Manuelito Express,Micro,I5610.01,Restaurantes y picanterías,2024-08-12,2026-02-16,Cañar,Azogues,-2.483637,-78.841467,Mateo Pérez
DEU-49FEB475,Farmacia Vida,Pequeña,G4774.01,Farmacias y artículos médicos,2023-07-18,2026-02-17,Azuay,Cuenca,-2.820799,-79.067791,Diana Cárdenas
DEU-94680BF5,La Manuelito,Micro,G4711.01,Tiendas de abarrotes y víveres,2023-01-15,2026-03-17,Chimborazo,Riobamba,-1.734146,-78.71065,Auto-gestionado
DEU-2D268774,Boutique Pancho Mini,Micro,G4771.01,Boutiques y ropa,2023-09-10,2026-03-25,Manabí,Portoviejo,-1.153658,-80.518472,Iván Moreno
DEU-A339B86E,Mi Beto Express,Micro,I5610.01,Restaurantes y picanterías,2026-02-24,2026-03-24,El Oro,Machala,-3.213961,-80.01221,Auto-gestionado
DEU-4D315747,Super Mayra,Micro,I5610.03,Bares y cantinas,2024-10-02,2026-03-30,Imbabura,Ibarra,0.334286,-78.034398,Oswaldo Ñacato
DEU-DE1DE2AC,Tío Martita Express,Micro,I5610.01,Restaurantes y picanterías,2024-06-25,2026-03-21,Guayas,Guayaquil,-2.139537,-79.932362,Auto-gestionado
DEU-8519DD43,Farmacia Central Plus,Micro,G4774.01,Farmacias y artículos médicos,2026-02-18,2026-02-19,Pichincha,Quito,-0.208107,-78.447855,Natalia Rosales
DEU-513C7AA0,Mi Juanito Mini,Micro,G4711.01,Tiendas de abarrotes y víveres,2022-01-31,2026-03-13,Guayas,Guayaquil,-2.121793,-79.81377,Auto-gestionado
DEU-DEEF4E22,Tía Fanny Plus,Micro,G4711.01,Tiendas de abarrotes y víveres,2026-02-06,2026-02-28,Chimborazo,Riobamba,-1.779347,-78.767297,Auto-gestionado
DEU-1785AB95,Farmacia Sana Express,Micro,G4774.01,Farmacias y artículos médicos,2022-06-29,2026-03-31,Pichincha,Quito,-0.112087,-78.480595,Auto-gestionado
DEU-98729F59,Doña Pancho Mini,Micro,G4711.01,Tiendas de abarrotes y víveres,2024-12-17,2026-03-24,Pichincha,Quito,-0.079009,-78.406131,Auto-gestionado
DEU-0CAA0FE2,Tía Nelly Market,Micro,S9601.01,Lavanderías y tintorerías,2021-03-20,2026-02-07,Santo Domingo,Santo Domingo,-0.234473,-79.170293,Auto-gestionado
DEU-A1040405,Super Pedrito Mini,Micro,I5610.02,Comida rápida y food trucks,2025-01-20,2026-03-27,Manabí,Portoviejo,-0.958567,-80.307213,Iván Moreno
DEU-B86710B1,Mi Anita Market,Micro,I5610.01,Restaurantes y picanterías,2023-03-25,2026-03-27,Guayas,Guayaquil,-2.133882,-80.005668,Auto-gestionado
DEU-5301015B,Don Nelly Express,Micro,G4711.01,Tiendas de abarrotes y víveres,2024-04-08,2026-03-29,Pichincha,Quito,-0.232326,-78.595849,Auto-gestionado
DEU-20D2EB12,Farmacia Central,Micro,G4774.01,Farmacias y artículos médicos,2022-05-30,2026-03-09,Santa Elena,Santa Elena,-2.215336,-80.775327,Auto-gestionado
DEU-F61C7697,Mi Fanny,Micro,G4721.01,Fruterías y mercados,2024-01-24,2026-03-31,Napo,Tena,-0.901217,-77.845201,Auto-gestionado
DEU-0C8BB220,Boutique Manuelito Express,Micro,G4771.01,Boutiques y ropa,2025-09-06,2026-03-12,Pichincha,Quito,-0.049591,-78.449781,Diana Cárdenas
DEU-876D9508,La Beto,Micro,G4711.01,Tiendas de abarrotes y víveres,2022-09-02,2026-03-17,Pichincha,Quito,-0.171076,-78.426645,Auto-gestionado
DEU-9208E18D,Tía Mayra Plus,Micro,I5630.01,Cafeterías y panaderías,2025-08-23,2026-03-19,Pichincha,Quito,-0.171511,-78.343699,Jimena Salazar
DEU-944B7D89,Tío Segundo,Micro,I5610.02,Comida rápida y food trucks,2026-01-18,2026-03-17,Azuay,Cuenca,-2.852601,-78.908875,Carlos Mendoza
DEU-567852AA,Super Juanito,Micro,I5610.02,Comida rápida y food trucks,2024-10-13,2026-03-24,Azuay,Cuenca,-2.921653,-78.948497,Auto-gestionado
DEU-586D9E69,Tía Anita,Pequeña,G4711.01,Tiendas de abarrotes y víveres,2023-06-17,2026-02-01,Los Ríos,Babahoyo,-1.802636,-79.49438,Fernanda Ortiz
DEU-1A061BAF,Farmacia Sana Market,Micro,G4774.01,Farmacias y artículos médicos,2023-08-01,2026-03-24,Guayas,Guayaquil,-2.132092,-80.087402,Auto-gestionado
DEU-C0DC82B7,Super Kléber Express,Micro,I5610.02,Comida rápida y food trucks,2025-09-13,2026-03-28,Pichincha,Quito,-0.177204,-78.381905,Carlos Mendoza
DEU-85B588B5,Tío Kléber Center,Micro,G4711.01,Tiendas de abarrotes y víveres,2022-05-13,2026-03-21,Pichincha,Quito,-0.189262,-78.550619,Auto-gestionado
DEU-7FD5E3F3,La Gladys,Micro,S9602.01,Peluquerías y salones de belleza,2024-03-08,2026-03-28,Pichincha,Quito,-0.112592,-78.517429,Auto-gestionado
DEU-12BB4096,Tío Pedrito,Micro,I5610.01,Restaurantes y picanterías,2020-09-09,2026-03-13,Guayas,Guayaquil,-2.039303,-79.942323,Oswaldo Ñacato
DEU-A625F3FF,Super Gladys,Micro,C1071.01,Panaderías y pastelerías,2022-09-26,2026-03-28,El Oro,Machala,-3.351681,-80.088127,Auto-gestionado
DEU-6262D252,Super Segundo Mini,Micro,I5630.01,Cafeterías y panaderías,2023-05-10,2026-03-16,Chimborazo,Riobamba,-1.719704,-78.750161,Auto-gestionado
DEU-AE484008,Farmacia Sana Market,Micro,G4774.01,Farmacias y artículos médicos,2023-05-03,2026-02-25,Azuay,Cuenca,-2.781745,-78.847009,Auto-gestionado
DEU-2339F1EE,Don Beto Mini,Micro,I5610.01,Restaurantes y picanterías,2023-11-06,2026-03-30,Pichincha,Quito,-0.230067,-78.568507,Iván Moreno
DEU-96BF284B,El Gladys,Micro,I5630.01,Cafeterías y panaderías,2022-05-25,2026-02-07,Esmeraldas,Esmeraldas,0.980837,-79.657919,Gabriel Aguilar
DEU-93AD6424,Doña Pedrito Center,Micro,G4721.01,Fruterías y mercados,2024-06-22,2026-03-04,Orellana,Coca,-0.421893,-76.919155,Auto-gestionado
DEU-F06E319C,Tía Pedrito Plus,Micro,G4711.01,Tiendas de abarrotes y víveres,2024-10-07,2026-03-30,Sucumbíos,Nueva Loja,0.101669,-76.75218,Auto-gestionado
DEU-08120066,Farmacia Central,Micro,G4774.01,Farmacias y artículos médicos,2024-07-19,2026-03-28,Santa Elena,Santa Elena,-2.286538,-81.029404,Auto-gestionado
DEU-1B9AC2C2,La Manuelito Market,Micro,G4711.01,Tiendas de abarrotes y víveres,2024-10-16,2026-03-30,Pichincha,Quito,-0.186434,-78.549705,Mateo Pérez
DEU-C64F7C04,El Gladys,Micro,G4721.01,Fruterías y mercados,2024-11-03,2026-03-29,Bolívar,Guaranda,-1.583573,-79.015454,Oswaldo Ñacato
DEU-5886C52F,Super Beto,Micro,G4711.01,Tiendas de abarrotes y víveres,2025-05-15,2026-03-18,Loja,Loja,-3.955628,-79.31459,Auto-gestionado
DEU-24E202EE,La Martita Market,Micro,G4719.01,Comercio mixto (bazar + abarrote),2023-07-30,2026-03-25,Guayas,Guayaquil,-2.114266,-79.745724,Auto-gestionado
DEU-04124053,Tía Mayra Mini,Micro,I5610.01,Restaurantes y picanterías,2023-09-23,2026-03-14,Azuay,Cuenca,-3.083225,-78.891301,Auto-gestionado
DEU-3B260E45,Super Mayra Mini,Micro,G4721.01,Fruterías y mercados,2024-02-22,2026-03-28,Santo Domingo,Santo Domingo,-0.186148,-79.090508,Fernanda Ortiz
DEU-6CB83938,Don Mayra,Micro,G4773.01,Bazares y papelerías,2024-02-24,2026-03-28,Santo Domingo,Santo Domingo,-0.27399,-79.249601,Carlos Mendoza
DEU-7D3CDC6A,Farmacia Central Market,Micro,G4774.01,Farmacias y artículos médicos,2026-02-11,2026-03-25,Pichincha,Quito,-0.123252,-78.342392,Auto-gestionado
DEU-4172CA40,El Anita Market,Micro,S9602.01,Peluquerías y salones de belleza,2024-08-04,2026-03-30,Guayas,Guayaquil,-2.192407,-79.957589,Fernanda Ortiz
DEU-17B96FB0,El Jorgito Express,Micro,G4711.01,Tiendas de abarrotes y víveres,2023-09-26,2026-02-19,Cotopaxi,Latacunga,-0.784838,-78.507866,Hilda Proaño
DEU-9D62390D,El Segundo Plus,Micro,G4711.01,Tiendas de abarrotes y víveres,2023-04-24,2026-03-28,Pichincha,Quito,-0.147193,-78.498943,Auto-gestionado
DEU-B7D90129,Doña Fanny Market,Micro,G4711.01,Tiendas de abarrotes y víveres,2022-05-31,2026-03-02,Guayas,Guayaquil,-2.132874,-79.816893,Hilda Proaño
DEU-2E62D6D1,El Fanny,Micro,I5610.02,Comida rápida y food trucks,2022-03-06,2026-03-21,Guayas,Guayaquil,-2.191667,-80.042651,Auto-gestionado
DEU-B77710C7,Farmacia Central Mini,Micro,G4774.01,Farmacias y artículos médicos,2025-03-05,2026-03-23,Cotopaxi,Latacunga,-1.016775,-78.574166,Auto-gestionado
DEU-65484A30,Farmacia Salud,Micro,G4774.01,Farmacias y artículos médicos,2022-11-23,2026-03-28,Zamora Chinchipe,Zamora,-4.067186,-78.95863,Auto-gestionado
DEU-E1004102,Farmacia Sana,Micro,G4774.01,Farmacias y artículos médicos,2023-05-26,2026-03-19,Pichincha,Quito,-0.069613,-78.680548,Auto-gestionado
DEU-5A8689D1,Doña Carmita Market,Pequeña,I5610.03,Bares y cantinas,2024-05-29,2026-03-31,Pichincha,Quito,-0.251076,-78.506691,Mateo Pérez
DEU-52638CE7,Mi Jorgito,Micro,I5610.02,Comida rápida y food trucks,2022-07-04,2026-03-18,Chimborazo,Riobamba,-1.793302,-78.627421,Auto-gestionado
DEU-BD150EFC,Farmacia Central Express,Pequeña,G4774.01,Farmacias y artículos médicos,2025-09-13,2026-03-07,Azuay,Cuenca,-2.857002,-78.97473,Esteban Ruiz
DEU-9A8DADC7,Super Juanito Center,Micro,I5610.02,Comida rápida y food trucks,2024-09-25,2026-03-03,Cañar,Azogues,-2.786875,-78.86877,Auto-gestionado
DEU-B18C9702,Boutique Fanny Center,Micro,G4771.01,Boutiques y ropa,2023-10-28,2026-03-25,Santo Domingo,Santo Domingo,-0.234219,-79.111462,Auto-gestionado
DEU-E326C6B0,Coop. 24 de Mayo Center,Micro,H4922.01,"Transporte (taxis, cooperativas)",2022-12-21,2026-03-09,Chimborazo,Riobamba,-1.587523,-78.683579,Auto-gestionado
DEU-C452B231,Don Anita,Mediana,I5610.02,Comida rápida y food trucks,2024-09-27,2026-03-13,Azuay,Cuenca,-2.901707,-79.039468,Jimena Salazar
DEU-9F6F1C84,El Gladys Center,Micro,G4773.01,Bazares y papelerías,2022-04-10,2026-03-31,Pichincha,Quito,-0.179225,-78.439993,Fernanda Ortiz
DEU-F1A6392F,Don Anita Center,Micro,G4711.01,Tiendas de abarrotes y víveres,2024-02-08,2026-03-29,Loja,Loja,-4.013418,-79.417557,Auto-gestionado
DEU-CB7D7E52,El Pancho Center,Micro,I5610.01,Restaurantes y picanterías,2024-11-01,2026-03-24,Pichincha,Quito,-0.188609,-78.283963,Oswaldo Ñacato
DEU-6EE42930,Doña Carmita Mini,Micro,G4721.01,Fruterías y mercados,2022-05-22,2026-03-26,Pichincha,Quito,-0.165759,-78.528231,Auto-gestionado
DEU-A1E2A498,Farmacia Salud Plus,Micro,G4774.01,Farmacias y artículos médicos,2025-11-07,2026-03-28,El Oro,Machala,-3.091595,-79.979764,Auto-gestionado
DEU-0946BFF3,Doña Fanny,Micro,G4711.01,Tiendas de abarrotes y víveres,2023-10-08,2026-03-30,Pichincha,Quito,0.024107,-78.475485,Auto-gestionado
DEU-04166906,Boutique Martita,Micro,G4771.01,Boutiques y ropa,2025-12-05,2026-03-14,El Oro,Machala,-3.382736,-79.987431,Auto-gestionado
DEU-10E37E89,La Pedrito Plus,Micro,G4711.01,Tiendas de abarrotes y víveres,2022-07-17,2026-03-01,Azuay,Cuenca,-2.906055,-78.956246,Fernanda Ortiz
DEU-B5AA0277,Super Carmita Express,Micro,S9602.01,Peluquerías y salones de belleza,2021-06-03,2026-03-31,Imbabura,Ibarra,0.460088,-78.040009,Auto-gestionado
DEU-337A8B48,Super Kléber Market,Micro,I5610.02,Comida rápida y food trucks,2024-03-11,2026-03-30,Galápagos,Puerto Ayora,-0.802235,-90.342317,Auto-gestionado
DEU-5BC40374,Mi Beto Market,Micro,G4711.01,Tiendas de abarrotes y víveres,2024-08-25,2026-03-25,Loja,Loja,-3.899369,-79.428299,Auto-gestionado
DEU-C4A2DED5,Tío Nelly,Pequeña,I5630.01,Cafeterías y panaderías,2024-10-20,2026-03-20,Guayas,Guayaquil,-2.274901,-79.986607,Gabriel Aguilar
DEU-9A7E8406,Tío Segundo Express,Micro,C1071.01,Panaderías y pastelerías,2021-10-08,2026-03-31,Guayas,Guayaquil,-2.278857,-79.87556,Natalia Rosales
DEU-18766EF5,El Segundo Mini,Pequeña,G4711.01,Tiendas de abarrotes y víveres,2023-05-25,2026-03-30,Guayas,Guayaquil,-2.041015,-79.954919,Paola Intriago
DEU-B8829CD5,Tía Anita Market,Micro,I5610.01,Restaurantes y picanterías,2023-04-18,2026-03-28,Guayas,Guayaquil,-2.194929,-79.986783,Auto-gestionado
DEU-6BEA63B0,Tío Fanny Market,Mediana,I5610.02,Comida rápida y food trucks,2022-12-12,2026-03-08,Pichincha,Quito,-0.141937,-78.492759,Lorena Dávila
DEU-55A8A8D4,Doña Chabela,Mediana,C1071.01,Panaderías y pastelerías,2025-11-12,2026-03-30,Azuay,Cuenca,-2.879311,-79.00071,Iván Moreno
DEU-9F63EFA0,Farmacia Central Market,Micro,G4774.01,Farmacias y artículos médicos,2022-03-22,2026-03-28,Cañar,Azogues,-2.864197,-78.842283,Gabriel Aguilar
DEU-5134B06C,Doña Lucho Market,Micro,G4711.01,Tiendas de abarrotes y víveres,2024-04-04,2026-03-21,Loja,Loja,-3.807764,-79.17373,Auto-gestionado
DEU-32572D66,Don Pedrito,Micro,I5610.02,Comida rápida y food trucks,2021-10-24,2026-03-02,Zamora Chinchipe,Zamora,-3.958038,-78.902013,Auto-gestionado
DEU-745F1F4B,Doña Mayra Center,Micro,I5610.02,Comida rápida y food trucks,2025-11-08,2026-03-27,Guayas,Guayaquil,-2.176422,-79.937406,Auto-gestionado
DEU-EA813DB9,Tío Kléber Market,Micro,G4711.01,Tiendas de abarrotes y víveres,2022-11-22,2026-01-19,Pichincha,Quito,-0.136615,-78.46469,Auto-gestionado
DEU-6759CE89,Super Martita Market,Micro,G4719.01,Comercio mixto (bazar + abarrote),2024-11-11,2026-03-12,Santo Domingo,Santo Domingo,-0.1032,-79.105661,Auto-gestionado
DEU-E867DB03,Tío Jorgito Express,Micro,G4711.01,Tiendas de abarrotes y víveres,2022-12-05,2026-03-30,Santo Domingo,Santo Domingo,-0.289561,-79.247326,Auto-gestionado
DEU-11A4EA15,Tía Manuelito,Pequeña,S9601.01,Lavanderías y tintorerías,2021-09-06,2026-03-28,Pichincha,Quito,-0.12869,-78.472538,Hilda Proaño
DEU-4828C721,Doña Lucho,Micro,G4773.01,Bazares y papelerías,2023-08-13,2026-01-31,Pichincha,Quito,-0.198757,-78.467527,Auto-gestionado
DEU-FB49C544,Tío Gladys,Micro,I5630.01,Cafeterías y panaderías,2024-07-16,2026-02-10,Pichincha,Quito,-0.205322,-78.450268,Auto-gestionado
DEU-0B1A9CC1,Mi Martita,Pequeña,G4711.01,Tiendas de abarrotes y víveres,2020-10-10,2026-03-13,Manabí,Portoviejo,-1.045823,-80.432074,Gabriel Aguilar
DEU-D8A51105,Super Rosita Express,Micro,G4711.01,Tiendas de abarrotes y víveres,2024-05-20,2026-03-30,Tungurahua,Ambato,-1.087368,-78.67589,Paola Intriago
DEU-F9C444DF,Boutique Chabela Market,Micro,G4771.01,Boutiques y ropa,2025-06-30,2026-03-22,Guayas,Guayaquil,-2.306979,-79.954919,Auto-gestionado
DEU-9142F4F3,Doña Rosita Center,Micro,I5610.01,Restaurantes y picanterías,2024-04-09,2026-02-14,Loja,Loja,-3.988396,-79.256426,Auto-gestionado
DEU-4552B637,Doña Beto Plus,Pequeña,I5610.02,Comida rápida y food trucks,2023-12-25,2026-03-24,Guayas,Guayaquil,-2.232263,-79.839393,Mateo Pérez
DEU-2032515F,El Mayra,Micro,G4711.01,Tiendas de abarrotes y víveres,2024-06-21,2026-03-20,El Oro,Machala,-3.225879,-79.900211,Auto-gestionado
DEU-26843DC0,Tío Anita,Micro,G4711.01,Tiendas de abarrotes y víveres,2021-08-23,2026-03-26,Pichincha,Quito,-0.050578,-78.666304,Kevin Jaramillo
DEU-75E770D0,El Pedrito Center,Micro,I5630.01,Cafeterías y panaderías,2022-06-28,2026-03-31,Manabí,Portoviejo,-1.108711,-80.308425,Auto-gestionado
DEU-0CA3CB4F,Mi Kléber Plus,Micro,I5610.01,Restaurantes y picanterías,2020-12-07,2026-03-22,Pichincha,Quito,-0.202852,-78.469831,Auto-gestionado
DEU-89DBF5D2,Tío Carmita Market,Micro,C1071.01,Panaderías y pastelerías,2022-12-26,2026-03-29,Guayas,Guayaquil,-2.248258,-79.926217,Auto-gestionado
DEU-C3400C7B,Farmacia del Barrio,Micro,G4774.01,Farmacias y artículos médicos,2023-01-13,2026-03-30,Manabí,Portoviejo,-1.124705,-80.449487,Auto-gestionado
DEU-83A883EF,Boutique Jorgito,Micro,G4771.01,Boutiques y ropa,2022-02-08,2026-03-16,Pichincha,Quito,-0.226394,-78.421993,Gabriel Aguilar
DEU-36E81932,Tío Jorgito,Micro,S9602.01,Peluquerías y salones de belleza,2025-09-23,2026-03-09,Azuay,Cuenca,-2.870343,-79.019655,Auto-gestionado
DEU-48BED794,Farmacia Salud Market,Micro,G4774.01,Farmacias y artículos médicos,2023-01-15,2026-03-29,Guayas,Guayaquil,-2.062782,-79.885269,Auto-gestionado
DEU-C4A9E4F0,Tío Lucho Market,Micro,S9602.01,Peluquerías y salones de belleza,2023-06-21,2026-03-11,El Oro,Machala,-3.068615,-79.989323,Fernanda Ortiz
DEU-F899E3DA,Farmacia Salud,Micro,G4774.01,Farmacias y artículos médicos,2026-02-18,2026-03-16,Manabí,Portoviejo,-1.129257,-80.392234,Auto-gestionado
DEU-07C87F2E,Mi Kléber Mini,Micro,G4711.01,Tiendas de abarrotes y víveres,2025-11-05,2026-03-11,Tungurahua,Ambato,-1.26959,-78.750187,Auto-gestionado
DEU-F72C7484,Tío Lucho Plus,Micro,G4541.01,Venta y repuestos de motos,2024-06-26,2026-02-28,Guayas,Guayaquil,-2.295845,-79.762261,Gabriel Aguilar
DEU-6802142A,Tía Rosita Mini,Mediana,I5610.01,Restaurantes y picanterías,2023-11-01,2026-03-27,Manabí,Portoviejo,-1.086531,-80.491219,Kevin Jaramillo
DEU-2840AF29,Doña Juanito Express,Pequeña,G4711.01,Tiendas de abarrotes y víveres,2023-03-31,2026-03-01,Tungurahua,Ambato,-1.23281,-78.631274,Paola Intriago
DEU-45FD903D,Mi Fanny Center,Micro,S9602.01,Peluquerías y salones de belleza,2023-05-26,2026-03-02,Azuay,Cuenca,-2.878643,-79.062989,Auto-gestionado
DEU-05888B97,La Nelly,Micro,I5610.01,Restaurantes y picanterías,2025-07-07,2026-03-25,Azuay,Cuenca,-2.961456,-79.066712,Auto-gestionado
DEU-A67C20E7,Doña Segundo Express,Micro,I5610.02,Comida rápida y food trucks,2023-05-11,2026-03-24,Manabí,Portoviejo,-1.007579,-80.443288,Auto-gestionado
DEU-10A1650D,Coop. Trans Vencedores,Micro,H4922.01,"Transporte (taxis, cooperativas)",2025-08-25,2026-03-20,Guayas,Guayaquil,-2.208317,-79.779108,Auto-gestionado
DEU-DCFC4E61,Mi Kléber Market,Micro,I5610.01,Restaurantes y picanterías,2022-03-07,2026-03-30,Napo,Tena,-0.981566,-77.853414,Auto-gestionado
DEU-EF86A98B,Don Gladys,Micro,I5610.01,Restaurantes y picanterías,2020-10-24,2026-02-05,Azuay,Cuenca,-2.742366,-79.022951,Auto-gestionado
DEU-AFA62495,Super Chabela Center,Micro,I5610.01,Restaurantes y picanterías,2022-02-22,2026-02-17,Pichincha,Quito,-0.265945,-78.460456,Iván Moreno
DEU-751E1119,Boutique Mayra,Micro,G4771.01,Boutiques y ropa,2022-09-10,2026-03-04,Sucumbíos,Nueva Loja,0.170247,-76.902017,Kevin Jaramillo
DEU-2626B609,Tía Nelly Plus,Micro,G4773.01,Bazares y papelerías,2022-10-17,2026-02-22,Pichincha,Quito,-0.150828,-78.427239,Auto-gestionado
DEU-A223FDFC,Tío Pedrito,Micro,S9602.01,Peluquerías y salones de belleza,2022-08-09,2026-03-26,Santa Elena,Santa Elena,-2.374775,-80.782823,Jimena Salazar
DEU-09EEA360,Farmacia Sana Plus,Micro,G4774.01,Farmacias y artículos médicos,2023-04-30,2026-03-15,Santo Domingo,Santo Domingo,-0.207248,-79.142856,Carlos Mendoza
DEU-1A92D692,Doña Anita Center,Micro,C1071.01,Panaderías y pastelerías,2024-04-29,2026-03-17,Santo Domingo,Santo Domingo,-0.369926,-79.243233,Auto-gestionado
DEU-448501FD,Mi Segundo Mini,Micro,I5630.01,Cafeterías y panaderías,2023-01-06,2026-03-18,Azuay,Cuenca,-2.815015,-78.82621,Auto-gestionado
DEU-07791422,Mi Beto,Micro,I5630.01,Cafeterías y panaderías,2026-01-23,2026-03-06,Manabí,Portoviejo,-1.004808,-80.447828,Auto-gestionado
DEU-D00A3D45,Mi Jorgito Market,Micro,I5610.01,Restaurantes y picanterías,2024-09-29,2026-03-13,Pichincha,Quito,-0.374016,-78.510448,Auto-gestionado
DEU-52D1A1B0,Tía Carmita Market,Micro,G4719.01,Comercio mixto (bazar + abarrote),2022-06-24,2026-03-28,Chimborazo,Riobamba,-1.758436,-78.532241,Auto-gestionado
DEU-4E4D2C7D,Boutique Segundo Mini,Micro,G4771.01,Boutiques y ropa,2024-02-02,2026-03-13,Manabí,Portoviejo,-1.049976,-80.390927,Auto-gestionado
DEU-8367D228,Mi Lucho,Micro,I5630.01,Cafeterías y panaderías,2023-10-16,2026-03-28,Orellana,Coca,-0.510426,-76.944617,Esteban Ruiz
DEU-1CB20233,Farmacia Vida Center,Micro,G4774.01,Farmacias y artículos médicos,2025-09-13,2026-03-06,Guayas,Guayaquil,-2.160882,-79.956752,Jimena Salazar
DEU-2FA98042,Super Segundo Market,Micro,G4711.01,Tiendas de abarrotes y víveres,2024-07-22,2026-03-27,Loja,Loja,-3.94872,-79.2316,Auto-gestionado
DEU-86E48CE7,Boutique Kléber,Micro,G4771.01,Boutiques y ropa,2022-06-04,2026-03-29,El Oro,Machala,-3.211166,-79.90092,Auto-gestionado
DEU-7018840E,Mi Jorgito,Micro,I5630.01,Cafeterías y panaderías,2022-03-17,2026-03-16,Santo Domingo,Santo Domingo,-0.296199,-79.246322,Auto-gestionado
DEU-A38CA31A,Tía Jorgito,Micro,G4711.01,Tiendas de abarrotes y víveres,2024-06-10,2026-03-23,Manabí,Portoviejo,-1.001242,-80.576463,Lorena Dávila
DEU-FCD77A45,Don Mayra Plus,Micro,G4711.01,Tiendas de abarrotes y víveres,2023-01-29,2026-03-30,Pastaza,Puyo,-1.438081,-77.862528,Diana Cárdenas
DEU-35257A12,La Jorgito,Micro,I5610.01,Restaurantes y picanterías,2025-10-11,2026-03-30,Guayas,Guayaquil,-2.252695,-79.756004,Auto-gestionado
DEU-4B24D7E2,Boutique Martita,Micro,G4771.01,Boutiques y ropa,2022-01-20,2026-03-24,Pichincha,Quito,-0.200421,-78.590843,Auto-gestionado
DEU-878E4056,Super Rosita Express,Micro,I5610.01,Restaurantes y picanterías,2025-09-27,2026-03-10,Zamora Chinchipe,Zamora,-4.134297,-78.943785,Auto-gestionado
DEU-91E42D7E,El Rosita Express,Micro,G4773.01,Bazares y papelerías,2023-02-13,2026-02-05,Guayas,Guayaquil,-2.172502,-79.891711,Auto-gestionado
DEU-36E583EE,Super Kléber,Micro,I5610.01,Restaurantes y picanterías,2023-10-14,2026-03-01,El Oro,Machala,-3.309993,-79.93353,Auto-gestionado
DEU-F3CBA4A6,Super Mayra Plus,Micro,G4711.01,Tiendas de abarrotes y víveres,2023-05-19,2026-03-25,Guayas,Guayaquil,-2.194164,-79.955026,Auto-gestionado
DEU-75C2E6AB,Doña Kléber,Micro,I5610.01,Restaurantes y picanterías,2024-07-25,2026-03-24,Guayas,Guayaquil,-2.134979,-79.964841,Auto-gestionado
DEU-A406CE8E,Tía Pancho Plus,Micro,S9602.01,Peluquerías y salones de belleza,2024-02-21,2026-03-28,Guayas,Guayaquil,-2.141055,-79.762244,Paola Intriago
DEU-174A086D,Boutique Pancho Center,Micro,G4771.01,Boutiques y ropa,2024-10-27,2026-03-29,Guayas,Guayaquil,-2.168646,-79.92313,Esteban Ruiz
DEU-4268CA6E,La Beto,Micro,G4719.01,Comercio mixto (bazar + abarrote),2025-12-16,2026-03-15,Manabí,Portoviejo,-1.0959,-80.377958,Auto-gestionado
DEU-D8E9032F,El Rosita Express,Micro,I5610.01,Restaurantes y picanterías,2026-01-07,2026-03-27,Guayas,Guayaquil,-2.151551,-79.999962,Natalia Rosales
DEU-D59C097C,La Carmita,Micro,I5610.01,Restaurantes y picanterías,2022-03-19,2026-03-22,Pichincha,Quito,-0.089181,-78.629048,Paola Intriago
DEU-299B0BC9,La Manuelito Express,Mediana,I5610.01,Restaurantes y picanterías,2024-01-23,2026-03-21,Tungurahua,Ambato,-1.264335,-78.624262,Hilda Proaño
DEU-58C73D9E,La Chabela,Micro,I5610.01,Restaurantes y picanterías,2025-11-04,2026-03-08,Pichincha,Quito,-0.141449,-78.550032,Auto-gestionado
DEU-41175647,Tío Martita Plus,Micro,I5630.01,Cafeterías y panaderías,2023-12-17,2026-03-27,Manabí,Portoviejo,-1.159956,-80.458488,Auto-gestionado
DEU-DDDF3C3C,Farmacia Salud Mini,Micro,G4774.01,Farmacias y artículos médicos,2024-04-28,2026-03-05,Guayas,Guayaquil,-2.250376,-79.876048,Auto-gestionado
DEU-E638D0BE,Doña Rosita,Micro,G4711.01,Tiendas de abarrotes y víveres,2024-07-01,2026-03-27,Pichincha,Quito,-0.291736,-78.528779,Auto-gestionado
DEU-8B3733A3,Don Kléber,Pequeña,I5610.01,Restaurantes y picanterías,2024-11-09,2026-03-24,Pichincha,Quito,-0.126122,-78.441149,Kevin Jaramillo
DEU-57601D84,Coop. 24 de Mayo Center,Pequeña,H4922.01,"Transporte (taxis, cooperativas)",2023-04-03,2026-03-04,Esmeraldas,Esmeraldas,1.016316,-79.709941,Kevin Jaramillo
DEU-D1FA80A5,Tío Fanny Mini,Micro,G4773.01,Bazares y papelerías,2023-03-24,2026-02-26,Pichincha,Quito,-0.375237,-78.475585,Auto-gestionado
DEU-91E96D97,Don Fanny,Micro,G4541.01,Venta y repuestos de motos,2021-07-21,2026-03-15,Santo Domingo,Santo Domingo,-0.300747,-79.177365,Diana Cárdenas
DEU-35AE2C7C,Mi Lucho Mini,Mediana,G4721.01,Fruterías y mercados,2023-10-09,2026-03-15,Pichincha,Quito,-0.214378,-78.49209,Mateo Pérez
DEU-F86A8D5F,La Fanny Plus,Micro,I5630.01,Cafeterías y panaderías,2024-11-24,2026-03-09,Guayas,Guayaquil,-2.234737,-79.933978,Auto-gestionado
DEU-A63EC833,El Anita,Micro,G4711.01,Tiendas de abarrotes y víveres,2021-12-05,2026-03-22,Orellana,Coca,-0.536111,-77.056137,Kevin Jaramillo
DEU-C4E2D2CA,Don Lucho Market,Micro,G4541.01,Venta y repuestos de motos,2024-10-23,2026-03-15,Loja,Loja,-3.891451,-79.067358,Auto-gestionado
DEU-70F8EF03,Don Fanny,Pequeña,I5610.01,Restaurantes y picanterías,2023-08-12,2026-02-17,Guayas,Guayaquil,-2.22314,-80.020718,Oswaldo Ñacato
DEU-01D6999C,Super Lucho,Micro,I5630.01,Cafeterías y panaderías,2025-04-20,2026-03-20,Santa Elena,Santa Elena,-2.323697,-80.767461,Auto-gestionado
DEU-3164F8CA,Super Anita Plus,Mediana,G4721.01,Fruterías y mercados,2020-10-22,2026-03-11,Pichincha,Quito,-0.213039,-78.461947,Jimena Salazar
DEU-4B33DB1F,Tío Gladys Express,Micro,G4711.01,Tiendas de abarrotes y víveres,2025-04-01,2026-03-21,Santa Elena,Santa Elena,-2.194725,-80.910409,Natalia Rosales
DEU-4C6CF01D,El Carmita Center,Micro,G4721.01,Fruterías y mercados,2022-02-04,2026-03-19,Guayas,Guayaquil,-2.239607,-79.902883,Fernanda Ortiz
DEU-757AE29C,Don Chabela,Micro,G4711.01,Tiendas de abarrotes y víveres,2025-02-12,2026-03-24,Pichincha,Quito,-0.114424,-78.541937,Lorena Dávila
DEU-5D891457,El Martita Express,Micro,G4773.01,Bazares y papelerías,2023-07-16,2026-03-20,Guayas,Guayaquil,-2.047338,-79.846785,Kevin Jaramillo
DEU-4022A321,El Gladys,Micro,G4711.01,Tiendas de abarrotes y víveres,2023-02-24,2026-03-26,Pichincha,Quito,-0.190376,-78.434237,Fernanda Ortiz
DEU-82E33CC2,Tía Chabela,Micro,S9602.01,Peluquerías y salones de belleza,2022-08-30,2026-03-31,Pichincha,Quito,-0.234898,-78.41406,Auto-gestionado
DEU-7C0CF02E,Super Anita Express,Micro,G4711.01,Tiendas de abarrotes y víveres,2025-08-05,2026-03-12,Pichincha,Quito,-0.296265,-78.600702,Auto-gestionado
DEU-BCF00541,Tía Juanito Center,Micro,G4711.01,Tiendas de abarrotes y víveres,2024-01-09,2026-03-26,Pichincha,Quito,0.020293,-78.494909,Auto-gestionado
DEU-185181AC,Super Carmita Plus,Micro,G4721.01,Fruterías y mercados,2023-02-14,2026-03-12,Pichincha,Quito,-0.174175,-78.363275,Auto-gestionado
DEU-B8FB3C16,Coop. 24 de Mayo Center,Micro,H4922.01,"Transporte (taxis, cooperativas)",2023-03-05,2026-03-16,Guayas,Guayaquil,-2.109052,-79.851823,Auto-gestionado
DEU-DD1E38AF,Don Beto,Micro,G4761.01,Librerías y útiles escolares,2025-03-28,2026-03-19,Pichincha,Quito,-0.112692,-78.397743,Diana Cárdenas
DEU-3C23687D,Doña Rosita Express,Micro,G4773.01,Bazares y papelerías,2023-12-09,2026-03-27,Pichincha,Quito,-0.169429,-78.609275,Auto-gestionado
DEU-9127823B,El Rosita,Micro,G4711.01,Tiendas de abarrotes y víveres,2023-02-18,2026-03-30,Santo Domingo,Santo Domingo,-0.267769,-79.06006,Carlos Mendoza
DEU-066F1CA3,Tía Anita,Micro,G4711.01,Tiendas de abarrotes y víveres,2025-07-20,2026-03-31,Cotopaxi,Latacunga,-0.957338,-78.695445,Auto-gestionado
DEU-CD334B79,La Manuelito Express,Micro,I5610.01,Restaurantes y picanterías,2025-06-07,2026-03-23,Pichincha,Quito,-0.109794,-78.523213,Gabriel Aguilar
DEU-BAFA748D,Doña Manuelito,Micro,G4711.01,Tiendas de abarrotes y víveres,2023-05-07,2026-02-25,Pichincha,Quito,-0.172568,-78.558282,Auto-gestionado
DEU-78D0A938,Farmacia del Barrio,Pequeña,G4774.01,Farmacias y artículos médicos,2024-12-24,2026-03-27,Manabí,Portoviejo,-1.132727,-80.478953,Diana Cárdenas
DEU-A58B24DA,Don Manuelito,Micro,I5610.01,Restaurantes y picanterías,2025-03-19,2026-03-31,El Oro,Machala,-3.233535,-79.965912,Paola Intriago
DEU-B9100EF3,Farmacia Sana,Pequeña,G4774.01,Farmacias y artículos médicos,2025-11-03,2026-03-30,Pichincha,Quito,-0.231491,-78.464716,Gabriel Aguilar
DEU-F23F082E,Mi Gladys Market,Micro,I5610.01,Restaurantes y picanterías,2022-08-30,2026-03-28,Azuay,Cuenca,-2.919031,-78.913877,Auto-gestionado
DEU-499B5CA7,Doña Juanito Plus,Micro,G4721.01,Fruterías y mercados,2022-05-10,2026-02-02,Los Ríos,Babahoyo,-1.726341,-79.589338,Andrea Vásconez
DEU-2F0BAD42,Mi Carmita,Micro,G4711.01,Tiendas de abarrotes y víveres,2024-03-15,2026-02-28,Pichincha,Quito,-0.087745,-78.529269,Mateo Pérez
DEU-64252AAB,Farmacia Salud,Mediana,G4774.01,Farmacias y artículos médicos,2024-02-04,2026-03-25,Pichincha,Quito,-0.171519,-78.428099,Mateo Pérez
DEU-B7BE06B9,La Pancho Plus,Micro,G4711.01,Tiendas de abarrotes y víveres,2023-10-10,2026-02-09,Azuay,Cuenca,-2.817029,-78.965466,Auto-gestionado
DEU-011A0B05,Coop. Reina del Camino Center,Micro,H4922.01,"Transporte (taxis, cooperativas)",2024-05-24,2026-02-23,Guayas,Guayaquil,-2.021036,-79.835996,Auto-gestionado
DEU-C31B1E3A,Coop. Los Andes Center,Micro,H4922.01,"Transporte (taxis, cooperativas)",2025-04-28,2026-01-29,Pichincha,Quito,-0.113995,-78.50202,Auto-gestionado
DEU-5266F8F4,Mi Beto Plus,Micro,G4719.01,Comercio mixto (bazar + abarrote),2023-08-12,2026-03-30,Pichincha,Quito,-0.25711,-78.433912,Mateo Pérez
DEU-512068BF,Mi Juanito,Micro,G4541.01,Venta y repuestos de motos,2024-04-27,2026-01-03,El Oro,Machala,-3.342717,-79.958681,Lorena Dávila
DEU-641FDD04,Farmacia Sana Plus,Micro,G4774.01,Farmacias y artículos médicos,2025-02-03,2026-03-12,Pichincha,Quito,-0.037266,-78.449884,Auto-gestionado
DEU-A2EF2A1A,Mi Martita Express,Micro,I5630.01,Cafeterías y panaderías,2023-10-27,2026-03-22,Los Ríos,Babahoyo,-1.882423,-79.44301,Auto-gestionado
DEU-4EE75976,La Chabela,Micro,I5610.01,Restaurantes y picanterías,2025-02-12,2026-03-27,Guayas,Guayaquil,-2.127235,-79.98959,Auto-gestionado
DEU-D6B5B9D0,Don Segundo Express,Micro,G4721.01,Fruterías y mercados,2023-11-03,2026-03-22,Guayas,Guayaquil,-2.073527,-79.800695,Diana Cárdenas
DEU-A446C262,Super Anita Center,Micro,G4711.01,Tiendas de abarrotes y víveres,2024-12-27,2026-03-30,Pichincha,Quito,-0.254551,-78.427495,Auto-gestionado
DEU-D0972AD0,Tío Anita,Pequeña,G4711.01,Tiendas de abarrotes y víveres,2024-05-29,2026-03-10,Guayas,Guayaquil,-2.200618,-79.932016,Esteban Ruiz
DEU-675235E1,Coop. Los Andes,Micro,H4922.01,"Transporte (taxis, cooperativas)",2025-10-12,2026-03-19,Santo Domingo,Santo Domingo,-0.349367,-79.104561,Auto-gestionado
DEU-6E650E07,La Carmita,Micro,C1071.01,Panaderías y pastelerías,2025-02-16,2026-03-23,Guayas,Guayaquil,-2.344714,-79.854606,Auto-gestionado
DEU-585B2ED1,La Gladys Express,Pequeña,I5610.01,Restaurantes y picanterías,2025-11-16,2026-03-07,El Oro,Machala,-3.279861,-79.917871,Esteban Ruiz
DEU-B3FF0583,Farmacia Vida Market,Micro,G4774.01,Farmacias y artículos médicos,2024-06-13,2026-03-28,Morona Santiago,Macas,-2.262951,-77.941042,Auto-gestionado
DEU-32A10A04,Doña Chabela,Micro,G4711.01,Tiendas de abarrotes y víveres,2025-02-01,2026-03-28,Pichincha,Quito,-0.316716,-78.425536,Jimena Salazar
DEU-7FCFBAF6,Super Gladys Market,Pequeña,C1071.01,Panaderías y pastelerías,2025-03-20,2026-03-30,Pichincha,Quito,-0.133185,-78.382269,Natalia Rosales
DEU-056A3DB1,La Rosita Plus,Micro,I5610.02,Comida rápida y food trucks,2024-08-28,2026-03-27,Chimborazo,Riobamba,-1.595312,-78.709461,Auto-gestionado
DEU-71202B9B,Tía Kléber Plus,Micro,I5630.01,Cafeterías y panaderías,2023-03-01,2026-03-29,Guayas,Guayaquil,-2.260534,-79.931195,Gabriel Aguilar
DEU-8781E2E8,Super Pancho Market,Micro,I5610.01,Restaurantes y picanterías,2023-06-27,2026-03-16,Azuay,Cuenca,-2.97734,-79.003487,Carlos Mendoza
DEU-9A6B5CE9,El Mayra Express,Mediana,I5610.01,Restaurantes y picanterías,2020-04-26,2026-03-18,Guayas,Guayaquil,-2.148229,-79.927787,Lorena Dávila
DEU-5B05EB89,Tío Chabela,Micro,G4541.01,Venta y repuestos de motos,2022-08-11,2026-03-27,Pichincha,Quito,-0.198316,-78.633228,Auto-gestionado
DEU-D8EB75AF,Mi Carmita Plus,Micro,G4711.01,Tiendas de abarrotes y víveres,2025-08-31,2026-03-21,Guayas,Guayaquil,-2.195637,-79.982573,Auto-gestionado
DEU-F297E19A,Tío Nelly,Micro,G4711.01,Tiendas de abarrotes y víveres,2023-07-04,2026-02-28,Santa Elena,Santa Elena,-2.297598,-80.836807,Auto-gestionado
DEU-EE7A3C0E,La Rosita,Mediana,G4711.01,Tiendas de abarrotes y víveres,2023-05-30,2026-02-24,Tungurahua,Ambato,-1.26671,-78.654543,Fernanda Ortiz
DEU-86AC7239,Doña Lucho Center,Micro,I5610.01,Restaurantes y picanterías,2021-07-03,2026-03-05,Pichincha,Quito,-0.125671,-78.434227,Auto-gestionado
DEU-B4A3B1D1,Mi Fanny,Micro,S9602.01,Peluquerías y salones de belleza,2021-04-17,2026-03-20,Santo Domingo,Santo Domingo,-0.205366,-79.084453,Mateo Pérez
DEU-5B71FE6B,Super Beto,Micro,I5610.03,Bares y cantinas,2023-08-05,2026-03-31,Pichincha,Quito,-0.082588,-78.375232,Auto-gestionado
DEU-B17FAA91,Tío Kléber Plus,Micro,C1071.01,Panaderías y pastelerías,2025-01-29,2026-03-20,Cotopaxi,Latacunga,-0.984395,-78.58658,Auto-gestionado
DEU-1375D8AF,Tío Pedrito,Micro,I5610.01,Restaurantes y picanterías,2020-06-18,2026-03-19,Pichincha,Quito,0.033549,-78.506652,Auto-gestionado
DEU-DB39A136,Tía Lucho Mini,Micro,G4773.01,Bazares y papelerías,2024-04-10,2026-03-26,El Oro,Machala,-3.309798,-79.813375,Mateo Pérez
DEU-609085B9,Mi Juanito Center,Micro,I5610.02,Comida rápida y food trucks,2021-10-21,2026-03-31,Pichincha,Quito,-0.061019,-78.431222,Auto-gestionado
DEU-4CAB233D,El Jorgito Market,Micro,I5630.01,Cafeterías y panaderías,2024-01-17,2026-03-10,Pichincha,Quito,-0.282052,-78.464259,Diana Cárdenas
DEU-B139016F,Tía Manuelito Market,Micro,S9602.01,Peluquerías y salones de belleza,2023-04-24,2026-03-15,Pichincha,Quito,-0.225673,-78.484538,Auto-gestionado
DEU-07D152CB,Tía Juanito Market,Micro,G4541.01,Venta y repuestos de motos,2022-06-26,2026-03-31,Guayas,Guayaquil,-2.019589,-79.959368,Auto-gestionado
DEU-FC3F0695,Mi Nelly,Micro,G4711.01,Tiendas de abarrotes y víveres,2022-01-09,2026-03-10,Bolívar,Guaranda,-1.597569,-79.032601,Auto-gestionado
DEU-6C414CCF,El Pedrito Mini,Pequeña,G4711.01,Tiendas de abarrotes y víveres,2025-09-13,2026-03-05,Guayas,Guayaquil,-2.175572,-79.910951,Andrea Vásconez
DEU-649AB4DF,El Juanito Center,Micro,G4711.01,Tiendas de abarrotes y víveres,2022-03-31,2026-03-04,Pichincha,Quito,0.029934,-78.612248,Auto-gestionado
DEU-78CC8647,La Manuelito,Micro,G4711.01,Tiendas de abarrotes y víveres,2022-10-30,2026-03-20,Chimborazo,Riobamba,-1.500836,-78.647872,Auto-gestionado
DEU-DC2FCFE9,Don Juanito,Grande,G4711.01,Tiendas de abarrotes y víveres,2024-09-25,2026-03-26,Azuay,Cuenca,-2.913148,-78.99178,Gabriel Aguilar
DEU-8725256E,Don Jorgito,Micro,G4711.01,Tiendas de abarrotes y víveres,2023-07-17,2026-03-28,Azuay,Cuenca,-2.937325,-79.014376,Fernanda Ortiz
DEU-81191A48,Tía Juanito,Micro,I5610.02,Comida rápida y food trucks,2024-06-19,2026-03-31,Azuay,Cuenca,-2.954382,-78.999846,Diana Cárdenas
DEU-891A1652,El Anita Express,Mediana,I5630.01,Cafeterías y panaderías,2023-04-15,2026-03-28,Guayas,Guayaquil,-2.164518,-79.896253,Iván Moreno
DEU-61FE367D,Tío Manuelito Market,Micro,G4719.01,Comercio mixto (bazar + abarrote),2025-07-13,2026-03-23,Guayas,Guayaquil,-2.061886,-79.98892,Auto-gestionado
DEU-1436E6E5,Tío Gladys,Micro,I5610.02,Comida rápida y food trucks,2023-04-04,2026-03-31,Azuay,Cuenca,-2.981958,-79.069454,Natalia Rosales
DEU-9C9D57EB,El Martita Mini,Micro,I5610.02,Comida rápida y food trucks,2024-02-19,2026-03-26,Cotopaxi,Latacunga,-0.845471,-78.539698,Auto-gestionado
DEU-9688B038,Super Mayra Market,Micro,G4711.01,Tiendas de abarrotes y víveres,2021-07-16,2026-03-05,Loja,Loja,-4.050749,-79.142771,Fernanda Ortiz
DEU-1CC8DBB6,Mi Anita Express,Pequeña,G4773.01,Bazares y papelerías,2024-02-08,2026-03-24,Pichincha,Quito,-0.171671,-78.460538,Carlos Mendoza
DEU-C0C1D96A,Tío Jorgito Center,Micro,I5610.02,Comida rápida y food trucks,2022-10-22,2026-02-15,Pichincha,Quito,-0.195984,-78.511675,Auto-gestionado
DEU-C950FB54,El Carmita,Micro,I5610.01,Restaurantes y picanterías,2024-09-15,2026-03-31,Carchi,Tulcán,0.812096,-77.783467,Auto-gestionado
DEU-F14573EF,Tío Mayra,Micro,I5610.01,Restaurantes y picanterías,2025-06-21,2026-02-24,Guayas,Guayaquil,-2.101066,-79.972792,Auto-gestionado
DEU-D6352899,Mi Segundo,Micro,S9602.01,Peluquerías y salones de belleza,2023-08-24,2026-03-30,Guayas,Guayaquil,-2.166105,-79.90021,Hilda Proaño
DEU-9BBB2B84,Doña Gladys Express,Micro,G4773.01,Bazares y papelerías,2024-06-18,2026-03-27,Santo Domingo,Santo Domingo,-0.088227,-79.105845,Auto-gestionado
DEU-21CE4F15,Mi Mayra Center,Micro,G4711.01,Tiendas de abarrotes y víveres,2023-02-27,2026-02-27,Guayas,Guayaquil,-2.152796,-79.888204,Paola Intriago
DEU-9B781404,Tío Pancho,Micro,I5610.01,Restaurantes y picanterías,2020-09-24,2026-03-13,Pichincha,Quito,-0.180683,-78.468544,Auto-gestionado
DEU-592174BF,Super Jorgito Plus,Micro,I5610.01,Restaurantes y picanterías,2022-05-12,2026-03-27,Chimborazo,Riobamba,-1.732176,-78.564653,Mateo Pérez
DEU-ADF40C20,Doña Anita Express,Pequeña,I5610.03,Bares y cantinas,2025-10-14,2026-03-30,Azuay,Cuenca,-2.994078,-79.065354,Hilda Proaño
DEU-C45BB2FF,Mi Carmita Market,Micro,S9602.01,Peluquerías y salones de belleza,2024-12-18,2026-03-10,Guayas,Guayaquil,-2.129121,-79.987712,Paola Intriago
DEU-A21E01E1,El Carmita,Micro,I5610.02,Comida rápida y food trucks,2023-11-12,2026-03-22,Cañar,Azogues,-2.738881,-78.9258,Auto-gestionado
DEU-7195C76A,Tía Pedrito,Micro,G4711.01,Tiendas de abarrotes y víveres,2024-05-31,2026-03-12,Manabí,Portoviejo,-1.077511,-80.426306,Auto-gestionado
DEU-A9E10131,Tía Chabela,Micro,S9602.01,Peluquerías y salones de belleza,2020-12-09,2026-02-19,Santo Domingo,Santo Domingo,-0.200549,-79.110832,Auto-gestionado
DEU-44A1DBC3,Don Nelly Center,Mediana,G4711.01,Tiendas de abarrotes y víveres,2024-02-01,2026-03-31,El Oro,Machala,-3.266685,-79.906283,Natalia Rosales
DEU-3749EF12,Tía Gladys Mini,Micro,I5630.01,Cafeterías y panaderías,2020-11-29,2026-03-25,Pichincha,Quito,-0.121434,-78.508857,Auto-gestionado
DEU-C58472A8,Don Fanny Center,Micro,I5630.01,Cafeterías y panaderías,2024-01-04,2026-03-22,Pichincha,Quito,-0.118382,-78.660591,Mateo Pérez
DEU-AFBBC4C1,La Nelly,Micro,I5610.02,Comida rápida y food trucks,2022-11-08,2026-03-19,Guayas,Guayaquil,-2.240169,-79.979939,Auto-gestionado
DEU-BA4B56C7,Tío Chabela,Micro,G4711.01,Tiendas de abarrotes y víveres,2023-09-27,2026-03-28,Guayas,Guayaquil,-2.321926,-79.980411,Auto-gestionado
DEU-44770E2E,Doña Rosita Plus,Micro,S9602.01,Peluquerías y salones de belleza,2024-07-18,2026-03-05,Azuay,Cuenca,-2.817886,-78.995412,Auto-gestionado
DEU-086DF9E1,Don Pedrito Market,Micro,G4711.01,Tiendas de abarrotes y víveres,2025-09-13,2026-03-22,Guayas,Guayaquil,-2.147068,-79.877098,Auto-gestionado
DEU-52A7828B,La Lucho Center,Micro,G4761.01,Librerías y útiles escolares,2024-08-23,2026-03-19,Tungurahua,Ambato,-1.233976,-78.744197,Andrea Vásconez
DEU-5C9D9E20,Doña Kléber Mini,Micro,G4711.01,Tiendas de abarrotes y víveres,2024-02-23,2026-03-07,Pichincha,Quito,-0.078168,-78.423185,Auto-gestionado
DEU-E2D72ACF,Don Martita,Micro,I5610.01,Restaurantes y picanterías,2023-06-21,2026-02-26,Guayas,Guayaquil,-2.119819,-79.941341,Carlos Mendoza
DEU-793F053A,La Lucho Express,Pequeña,I5630.01,Cafeterías y panaderías,2024-05-09,2026-02-15,Tungurahua,Ambato,-1.333453,-78.652666,Oswaldo Ñacato
DEU-DD1F64EB,Coop. 24 de Mayo Center,Micro,H4922.01,"Transporte (taxis, cooperativas)",2023-01-16,2026-03-29,Pichincha,Quito,-0.005688,-78.619358,Auto-gestionado
DEU-4A70739D,Mi Manuelito Plus,Micro,G4773.01,Bazares y papelerías,2025-03-25,2026-02-14,Pichincha,Quito,-0.21504,-78.420716,Lorena Dávila
DEU-60B9F87D,Tía Nelly Express,Micro,I5610.01,Restaurantes y picanterías,2021-05-03,2026-01-31,Morona Santiago,Macas,-2.146555,-78.228854,Auto-gestionado
DEU-370D56F6,La Gladys Plus,Pequeña,I5610.03,Bares y cantinas,2025-11-18,2026-03-29,Loja,Loja,-4.006566,-79.182695,Iván Moreno
DEU-19A2D041,Doña Juanito Center,Micro,I5610.01,Restaurantes y picanterías,2025-11-20,2026-03-03,Imbabura,Ibarra,0.470569,-78.139946,Auto-gestionado
DEU-D5AD1E56,Don Pedrito Center,Micro,I5610.01,Restaurantes y picanterías,2021-08-30,2026-03-29,Chimborazo,Riobamba,-1.554141,-78.636044,Auto-gestionado
DEU-1D7F9CEF,Tía Pedrito,Micro,I5610.01,Restaurantes y picanterías,2021-10-28,2026-03-29,Loja,Loja,-3.937191,-79.228722,Carlos Mendoza
DEU-7503445E,Mi Anita Express,Micro,G4721.01,Fruterías y mercados,2024-12-01,2026-02-14,Pastaza,Puyo,-1.591129,-78.121061,Auto-gestionado
DEU-EDB1606B,Tía Martita,Micro,I5610.01,Restaurantes y picanterías,2024-03-28,2026-03-28,Guayas,Guayaquil,-2.328508,-79.850992,Esteban Ruiz
DEU-F5C2F8AA,Don Martita,Pequeña,G4721.01,Fruterías y mercados,2022-06-07,2026-03-12,Pichincha,Quito,-0.158629,-78.511048,Iván Moreno
DEU-B60431F1,El Mayra,Micro,G4721.01,Fruterías y mercados,2026-02-06,2026-02-26,Azuay,Cuenca,-2.972003,-79.112325,Auto-gestionado
DEU-98F9464D,Don Juanito Plus,Micro,I5630.01,Cafeterías y panaderías,2022-05-01,2026-03-03,Imbabura,Ibarra,0.384422,-78.228341,Auto-gestionado
DEU-99E509D5,La Pancho Market,Micro,I5610.03,Bares y cantinas,2025-12-21,2026-03-25,Pichincha,Quito,-0.389037,-78.451884,Auto-gestionado
DEU-64E3C324,El Kléber Mini,Micro,G4711.01,Tiendas de abarrotes y víveres,2023-06-04,2026-03-31,Imbabura,Ibarra,0.360458,-78.038098,Auto-gestionado
DEU-4C2874B1,Super Pedrito Center,Micro,I5610.02,Comida rápida y food trucks,2025-04-06,2026-03-26,Imbabura,Ibarra,0.297643,-78.119568,Auto-gestionado
DEU-1C7CCA42,El Gladys Market,Micro,G4721.01,Fruterías y mercados,2025-06-29,2026-03-26,Pichincha,Quito,-0.08331,-78.402156,Auto-gestionado
DEU-7A7522F9,Super Carmita Market,Micro,G4711.01,Tiendas de abarrotes y víveres,2026-02-22,2026-03-10,Tungurahua,Ambato,-1.186329,-78.636823,Auto-gestionado
DEU-2A5F25E0,Doña Nelly,Micro,G4711.01,Tiendas de abarrotes y víveres,2022-10-12,2026-03-18,Azuay,Cuenca,-2.755927,-78.975252,Kevin Jaramillo
DEU-2BDC78BA,El Fanny Mini,Micro,I5610.03,Bares y cantinas,2024-10-11,2026-03-13,Guayas,Guayaquil,-2.24486,-79.895987,Auto-gestionado
DEU-43D60A78,Tía Lucho,Micro,G4711.01,Tiendas de abarrotes y víveres,2022-11-06,2026-03-25,Sucumbíos,Nueva Loja,0.062445,-76.871269,Auto-gestionado
DEU-088B2A7D,La Rosita Express,Micro,G4711.01,Tiendas de abarrotes y víveres,2022-10-06,2026-03-15,Pichincha,Quito,-0.256065,-78.431479,Auto-gestionado
DEU-5917FDB3,Super Nelly Plus,Micro,I5630.01,Cafeterías y panaderías,2025-01-07,2026-03-09,Azuay,Cuenca,-3.094905,-78.994373,Auto-gestionado
DEU-6B25123C,Don Rosita Plus,Micro,G4773.01,Bazares y papelerías,2024-09-14,2026-03-20,Loja,Loja,-3.997362,-79.283209,Auto-gestionado
DEU-9881CA20,Tía Martita Plus,Micro,I5630.01,Cafeterías y panaderías,2025-10-15,2026-03-17,Guayas,Guayaquil,-2.137256,-79.946636,Auto-gestionado
DEU-80CC7409,Don Pedrito Express,Micro,G4711.01,Tiendas de abarrotes y víveres,2026-02-21,2026-03-17,Loja,Loja,-3.97381,-79.225955,Auto-gestionado
DEU-3D94758D,Mi Nelly Express,Micro,G4711.01,Tiendas de abarrotes y víveres,2023-12-07,2026-03-23,Pichincha,Quito,-0.27885,-78.502572,Fernanda Ortiz
DEU-6BE025E0,Tío Pancho,Micro,I5610.01,Restaurantes y picanterías,2023-01-21,2026-03-24,Pichincha,Quito,-0.035632,-78.520395,Natalia Rosales
DEU-B789C942,El Pancho,Micro,G4711.01,Tiendas de abarrotes y víveres,2024-12-27,2026-03-26,Imbabura,Ibarra,0.405418,-78.069386,Jimena Salazar
DEU-DD7395C9,Doña Mayra,Micro,I5630.01,Cafeterías y panaderías,2024-09-14,2026-03-23,Morona Santiago,Macas,-2.326932,-78.193739,Auto-gestionado
DEU-1D4BF45D,La Carmita Express,Micro,G4711.01,Tiendas de abarrotes y víveres,2023-08-28,2026-02-08,Guayas,Guayaquil,-2.310696,-79.932643,Auto-gestionado
DEU-BE952CE7,La Pedrito Market,Micro,S9601.01,Lavanderías y tintorerías,2024-08-15,2026-03-16,Pichincha,Quito,-0.224434,-78.489532,Auto-gestionado
DEU-E7C45958,La Mayra Center,Mediana,I5610.01,Restaurantes y picanterías,2024-04-24,2026-03-27,Pichincha,Quito,-0.150952,-78.442458,Mateo Pérez
DEU-B43D4432,Mi Anita Mini,Micro,G4711.01,Tiendas de abarrotes y víveres,2022-12-08,2026-03-31,Pichincha,Quito,-0.008273,-78.546005,Esteban Ruiz
DEU-F1471750,Don Jorgito,Micro,I5610.02,Comida rápida y food trucks,2023-06-13,2026-02-12,Tungurahua,Ambato,-1.245498,-78.637167,Auto-gestionado
DEU-79647FB0,Boutique Juanito Plus,Micro,G4771.01,Boutiques y ropa,2021-07-23,2026-02-23,Chimborazo,Riobamba,-1.665384,-78.668648,Auto-gestionado
DEU-FF11C1E8,Tío Gladys,Micro,G4721.01,Fruterías y mercados,2024-08-20,2026-03-27,Pichincha,Quito,-0.179435,-78.47474,Iván Moreno
DEU-45F15441,Doña Chabela,Micro,G4711.01,Tiendas de abarrotes y víveres,2022-08-06,2026-03-18,Manabí,Portoviejo,-1.132449,-80.602695,Auto-gestionado
DEU-DA12AB56,La Juanito,Pequeña,I5610.01,Restaurantes y picanterías,2024-05-25,2026-03-21,Guayas,Guayaquil,-2.262274,-79.92514,Hilda Proaño
DEU-97D607C3,Tío Segundo Mini,Micro,G4711.01,Tiendas de abarrotes y víveres,2024-07-15,2026-03-27,El Oro,Machala,-3.203434,-79.972145,Auto-gestionado
DEU-869591EC,Coop. Los Andes Express,Micro,H4922.01,"Transporte (taxis, cooperativas)",2022-09-14,2026-03-23,Esmeraldas,Esmeraldas,1.130511,-79.713948,Auto-gestionado
DEU-C500B155,Don Pancho,Pequeña,G4711.01,Tiendas de abarrotes y víveres,2023-01-08,2026-03-26,Manabí,Portoviejo,-1.082078,-80.409521,Hilda Proaño
DEU-EDD46FB3,Mi Jorgito Express,Micro,I5610.03,Bares y cantinas,2023-08-27,2026-03-27,Pichincha,Quito,-0.160535,-78.497891,Auto-gestionado
DEU-629A88DB,Doña Gladys Plus,Micro,G4711.01,Tiendas de abarrotes y víveres,2025-10-18,2026-03-30,Pichincha,Quito,-0.11747,-78.440596,Auto-gestionado
DEU-A375FB38,Mi Segundo Market,Micro,I5630.01,Cafeterías y panaderías,2023-10-29,2026-03-08,Guayas,Guayaquil,-2.342484,-79.879773,Auto-gestionado
DEU-4FBD4205,Don Gladys,Pequeña,I5610.01,Restaurantes y picanterías,2026-01-07,2026-03-30,Cotopaxi,Latacunga,-0.931105,-78.726465,Jimena Salazar
DEU-79DB3ECE,El Segundo Plus,Micro,I5610.01,Restaurantes y picanterías,2025-05-27,2026-03-22,Pichincha,Quito,-0.064893,-78.459306,Auto-gestionado
DEU-6591A385,Mi Manuelito,Micro,I5610.02,Comida rápida y food trucks,2023-06-28,2026-03-23,Pichincha,Quito,-0.053121,-78.518909,Fernanda Ortiz
DEU-7D3FC934,El Fanny Center,Micro,I5630.01,Cafeterías y panaderías,2023-02-08,2026-03-28,El Oro,Machala,-3.280582,-79.921403,Auto-gestionado
DEU-5CF3EF66,Mi Kléber,Micro,G4711.01,Tiendas de abarrotes y víveres,2022-12-16,2026-03-17,Manabí,Portoviejo,-1.164809,-80.497682,Auto-gestionado
DEU-C753EBB5,Tío Beto Market,Micro,I5630.01,Cafeterías y panaderías,2022-07-02,2026-03-24,Guayas,Guayaquil,-2.084026,-79.837982,Carlos Mendoza
DEU-FB33DB02,Boutique Juanito,Mediana,G4771.01,Boutiques y ropa,2023-12-23,2026-03-21,Pichincha,Quito,-0.161758,-78.467988,Natalia Rosales
DEU-A37ECBAC,Mi Carmita,Pequeña,G4711.01,Tiendas de abarrotes y víveres,2021-08-20,2026-03-30,Guayas,Guayaquil,-2.305139,-79.909421,Natalia Rosales
DEU-EADB82F0,La Gladys Plus,Pequeña,I5610.01,Restaurantes y picanterías,2024-09-11,2026-03-11,Guayas,Guayaquil,-2.139131,-79.904529,Natalia Rosales
DEU-7AD713A9,Tío Lucho Mini,Micro,I5630.01,Cafeterías y panaderías,2023-03-08,2026-03-03,Chimborazo,Riobamba,-1.575782,-78.704754,Diana Cárdenas
DEU-70FD771F,Don Pedrito Market,Micro,S9602.01,Peluquerías y salones de belleza,2024-11-05,2026-03-20,Pichincha,Quito,-0.287753,-78.474776,Carlos Mendoza
DEU-656ACB3C,Tía Fanny,Micro,I5610.02,Comida rápida y food trucks,2023-05-16,2026-03-30,Guayas,Guayaquil,-2.25713,-79.977497,Auto-gestionado
DEU-26DAE3F5,Mi Mayra Mini,Micro,S9602.01,Peluquerías y salones de belleza,2023-01-02,2026-03-07,Guayas,Guayaquil,-2.118778,-80.013415,Paola Intriago
DEU-033A916E,Doña Carmita,Micro,I5610.02,Comida rápida y food trucks,2023-09-04,2026-03-10,Pichincha,Quito,-0.084176,-78.247791,Auto-gestionado
DEU-F83F16E7,Tío Fanny Plus,Micro,I5610.01,Restaurantes y picanterías,2023-02-27,2026-03-27,Pichincha,Quito,-0.279217,-78.363201,Auto-gestionado
DEU-43E6BF09,Tía Pedrito Mini,Micro,C1071.01,Panaderías y pastelerías,2023-06-01,2026-03-13,Guayas,Guayaquil,-2.043767,-79.901899,Auto-gestionado
DEU-CAE5C324,Farmacia Vida,Micro,G4774.01,Farmacias y artículos médicos,2024-08-01,2026-03-29,Azuay,Cuenca,-2.824695,-78.937064,Auto-gestionado
DEU-CE6A8C83,Mi Segundo,Mediana,I5610.02,Comida rápida y food trucks,2024-09-30,2026-03-28,Guayas,Guayaquil,-2.130133,-79.861905,Oswaldo Ñacato
DEU-6CBD61C0,Boutique Fanny Center,Micro,G4771.01,Boutiques y ropa,2023-08-29,2026-03-06,Pichincha,Quito,-0.143643,-78.577171,Hilda Proaño
DEU-5BB7D21E,Coop. Reina del Camino,Micro,H4922.01,"Transporte (taxis, cooperativas)",2022-06-18,2026-03-27,Morona Santiago,Macas,-2.359817,-78.083399,Auto-gestionado
DEU-948D2194,Super Anita Plus,Micro,S9602.01,Peluquerías y salones de belleza,2023-03-15,2026-03-21,Santo Domingo,Santo Domingo,-0.222573,-79.133659,Hilda Proaño
DEU-008245A3,La Anita,Micro,G4773.01,Bazares y papelerías,2020-05-31,2025-12-19,Zamora Chinchipe,Zamora,-4.030759,-79.079546,Auto-gestionado
DEU-7FCE95B5,El Lucho,Micro,C1071.01,Panaderías y pastelerías,2022-01-09,2026-03-25,El Oro,Machala,-3.265887,-79.995703,Lorena Dávila
DEU-104CF68B,La Pedrito Plus,Micro,I5610.01,Restaurantes y picanterías,2023-02-18,2026-03-21,Pichincha,Quito,-0.161533,-78.429067,Auto-gestionado
DEU-927141C9,Mi Jorgito Market,Micro,I5610.02,Comida rápida y food trucks,2024-09-24,2026-03-15,Santa Elena,Santa Elena,-2.279968,-80.871832,Auto-gestionado
DEU-E7587937,Tía Pedrito,Micro,C1071.01,Panaderías y pastelerías,2024-08-19,2026-03-22,Azuay,Cuenca,-3.019055,-79.117782,Auto-gestionado
DEU-5AA0D6A5,Mi Juanito Express,Pequeña,I5610.02,Comida rápida y food trucks,2025-12-20,2026-03-25,Guayas,Guayaquil,-2.170574,-79.886632,Gabriel Aguilar
DEU-425A37ED,Super Anita,Pequeña,G4711.01,Tiendas de abarrotes y víveres,2024-08-24,2026-03-27,Guayas,Guayaquil,-2.072771,-79.922215,Diana Cárdenas
DEU-57AE3B6C,Mi Kléber Express,Micro,I5610.02,Comida rápida y food trucks,2025-01-26,2026-03-14,El Oro,Machala,-3.363766,-79.776497,Auto-gestionado
DEU-8D51420B,Tío Anita Plus,Micro,I5610.02,Comida rápida y food trucks,2024-12-14,2026-02-27,Pichincha,Quito,-0.133531,-78.446447,Auto-gestionado
DEU-EB98606B,Don Beto Market,Micro,G4711.01,Tiendas de abarrotes y víveres,2024-09-13,2026-03-30,Chimborazo,Riobamba,-1.697045,-78.634779,Auto-gestionado
DEU-2A5F9790,Don Rosita,Micro,I5610.01,Restaurantes y picanterías,2024-12-22,2026-03-14,Cotopaxi,Latacunga,-0.868662,-78.484005,Auto-gestionado
DEU-8C32D24C,Doña Fanny Mini,Micro,G4711.01,Tiendas de abarrotes y víveres,2024-08-08,2026-03-17,Loja,Loja,-4.056157,-79.262222,Fernanda Ortiz
DEU-CB47E0B7,Super Pedrito Center,Micro,G4711.01,Tiendas de abarrotes y víveres,2020-08-13,2026-03-28,Pichincha,Quito,-0.197169,-78.527526,Auto-gestionado
DEU-09F6221F,Tía Pancho Center,Micro,G4711.01,Tiendas de abarrotes y víveres,2024-04-29,2026-03-26,Pichincha,Quito,-0.316877,-78.504825,Auto-gestionado
DEU-8EE08CBE,El Juanito,Micro,I5610.01,Restaurantes y picanterías,2022-10-22,2026-03-29,Pichincha,Quito,-0.21719,-78.453286,Auto-gestionado
DEU-C42A8AB0,Tío Rosita,Micro,G4711.01,Tiendas de abarrotes y víveres,2024-10-20,2026-03-29,Los Ríos,Babahoyo,-1.955348,-79.546208,Auto-gestionado
DEU-9FB108A7,Super Pedrito Express,Micro,S9602.01,Peluquerías y salones de belleza,2021-01-19,2026-03-26,Guayas,Guayaquil,-2.178537,-80.0645,Kevin Jaramillo
DEU-12F5D3DF,Super Lucho,Micro,G4711.01,Tiendas de abarrotes y víveres,2025-10-09,2026-03-28,Pichincha,Quito,-0.130307,-78.630955,Auto-gestionado
DEU-06F8C56E,Doña Lucho,Micro,G4721.01,Fruterías y mercados,2024-07-23,2026-03-14,Pichincha,Quito,-0.38418,-78.30883,Auto-gestionado
DEU-947E34E8,Doña Mayra Center,Micro,G4711.01,Tiendas de abarrotes y víveres,2024-11-25,2026-02-26,Pichincha,Quito,-0.237811,-78.332586,Gabriel Aguilar
DEU-2EB93E9D,Don Lucho,Micro,I5630.01,Cafeterías y panaderías,2024-05-15,2026-03-15,Azuay,Cuenca,-2.998762,-78.953042,Auto-gestionado
DEU-7207649C,Doña Martita Mini,Micro,I5610.01,Restaurantes y picanterías,2025-05-02,2026-02-20,Azuay,Cuenca,-2.94873,-79.04903,Iván Moreno
DEU-D4E590F1,Tía Anita Plus,Micro,I5610.01,Restaurantes y picanterías,2024-05-03,2026-01-23,Guayas,Guayaquil,-2.071841,-79.992559,Auto-gestionado
DEU-EC38981D,La Manuelito Center,Micro,I5630.01,Cafeterías y panaderías,2024-08-07,2026-03-31,Pichincha,Quito,-0.061185,-78.425568,Auto-gestionado
DEU-1CF7897E,Farmacia Salud,Micro,G4774.01,Farmacias y artículos médicos,2022-12-12,2026-02-16,Pichincha,Quito,-0.231603,-78.542035,Auto-gestionado
DEU-4B8B82D2,Farmacia Salud Market,Micro,G4774.01,Farmacias y artículos médicos,2024-07-06,2026-03-13,Cotopaxi,Latacunga,-0.866238,-78.493989,Carlos Mendoza
DEU-324DA314,Mi Beto Express,Micro,G4711.01,Tiendas de abarrotes y víveres,2024-11-28,2026-03-21,Guayas,Guayaquil,-2.159599,-80.092845,Auto-gestionado
DEU-765B1B04,Farmacia del Barrio Market,Micro,G4774.01,Farmacias y artículos médicos,2022-01-10,2026-03-23,Pichincha,Quito,-0.084729,-78.485292,Auto-gestionado
DEU-067CC10F,Doña Jorgito,Micro,G4711.01,Tiendas de abarrotes y víveres,2022-05-19,2026-03-07,Pichincha,Quito,-0.302074,-78.407754,Auto-gestionado
DEU-D6E13993,Coop. Reina del Camino,Micro,H4922.01,"Transporte (taxis, cooperativas)",2024-12-05,2026-03-24,El Oro,Machala,-3.197773,-80.044862,Auto-gestionado
DEU-BB77D1C0,Mi Anita Market,Micro,I5630.01,Cafeterías y panaderías,2023-01-11,2026-02-11,Pichincha,Quito,-0.238207,-78.4082,Auto-gestionado
DEU-2008E4BE,El Anita,Micro,S9602.01,Peluquerías y salones de belleza,2026-02-06,2026-02-27,Santa Elena,Santa Elena,-2.320481,-80.76655,Kevin Jaramillo
DEU-A3F24794,Tía Juanito Mini,Micro,I5610.02,Comida rápida y food trucks,2023-06-08,2026-03-08,Cotopaxi,Latacunga,-0.897762,-78.459675,Auto-gestionado
DEU-1FEA98F7,Tía Carmita,Micro,G4773.01,Bazares y papelerías,2025-07-11,2026-03-28,Pichincha,Quito,-0.154399,-78.465576,Auto-gestionado
DEU-399BA731,Doña Gladys Mini,Micro,I5610.01,Restaurantes y picanterías,2025-03-22,2026-03-31,Pichincha,Quito,-0.232251,-78.627396,Auto-gestionado
DEU-D31BF8BA,Tío Beto Mini,Micro,I5610.01,Restaurantes y picanterías,2022-12-09,2026-03-08,Esmeraldas,Esmeraldas,0.914757,-79.723634,Auto-gestionado
DEU-9DDBBE5E,Boutique Chabela,Micro,G4771.01,Boutiques y ropa,2024-04-17,2026-03-26,Los Ríos,Babahoyo,-1.832595,-79.457879,Auto-gestionado
DEU-817B27E0,La Segundo Plus,Micro,I5610.03,Bares y cantinas,2025-03-15,2026-03-22,Guayas,Guayaquil,-2.089414,-79.899108,Auto-gestionado
DEU-763DC750,Don Fanny Plus,Pequeña,G4711.01,Tiendas de abarrotes y víveres,2024-05-22,2026-03-25,Tungurahua,Ambato,-1.210212,-78.548097,Lorena Dávila
DEU-07550000,Don Chabela Market,Micro,S9602.01,Peluquerías y salones de belleza,2025-06-19,2026-03-26,Guayas,Guayaquil,-2.018147,-79.857609,Auto-gestionado
DEU-C8D8DE6C,Don Carmita Market,Micro,G4711.01,Tiendas de abarrotes y víveres,2022-12-23,2026-03-28,Chimborazo,Riobamba,-1.753916,-78.461766,Auto-gestionado
DEU-08C8A196,Tío Segundo Express,Micro,G4711.01,Tiendas de abarrotes y víveres,2022-03-04,2026-03-19,Azuay,Cuenca,-2.866233,-78.839439,Auto-gestionado
DEU-CD00B711,Tío Chabela,Micro,G4541.01,Venta y repuestos de motos,2020-05-04,2026-03-14,Santa Elena,Santa Elena,-2.379325,-80.927131,Auto-gestionado
DEU-30954D61,Mi Carmita,Micro,I5610.01,Restaurantes y picanterías,2025-12-14,2026-03-22,Pichincha,Quito,-0.329944,-78.385508,Auto-gestionado
DEU-810FE5D5,Tía Chabela Express,Micro,I5610.01,Restaurantes y picanterías,2025-04-04,2026-03-24,Guayas,Guayaquil,-2.292448,-80.148972,Gabriel Aguilar
DEU-FC17B45A,Don Martita Plus,Micro,I5610.01,Restaurantes y picanterías,2023-08-08,2026-02-18,Imbabura,Ibarra,0.309036,-78.104244,Auto-gestionado
DEU-9A713954,Tío Nelly Mini,Micro,S9602.01,Peluquerías y salones de belleza,2025-04-05,2026-03-27,Pichincha,Quito,-0.137602,-78.484702,Auto-gestionado
DEU-6D936C26,Boutique Rosita,Micro,G4771.01,Boutiques y ropa,2024-12-09,2026-03-31,Imbabura,Ibarra,0.253781,-78.068244,Auto-gestionado
DEU-EF966D7F,Super Segundo,Pequeña,S9601.01,Lavanderías y tintorerías,2024-07-15,2026-03-27,Guayas,Guayaquil,-2.091098,-79.940237,Paola Intriago
DEU-391B62DD,Tío Rosita Plus,Micro,G4711.01,Tiendas de abarrotes y víveres,2025-08-25,2026-03-28,Guayas,Guayaquil,-2.266889,-79.94578,Auto-gestionado
DEU-BC941CC2,Don Martita,Pequeña,I5610.01,Restaurantes y picanterías,2024-05-27,2026-03-11,El Oro,Machala,-3.246837,-79.920764,Carlos Mendoza
DEU-4630765E,Tío Juanito Express,Micro,I5610.01,Restaurantes y picanterías,2024-01-03,2026-02-16,Pichincha,Quito,-0.104861,-78.478609,Auto-gestionado
DEU-D629A4FE,Tía Chabela Market,Micro,I5630.01,Cafeterías y panaderías,2024-04-10,2026-02-25,Pichincha,Quito,-0.306117,-78.500959,Auto-gestionado
DEU-BA39AF76,Don Martita,Micro,G4773.01,Bazares y papelerías,2023-03-27,2026-03-28,Santo Domingo,Santo Domingo,-0.172207,-79.084522,Iván Moreno
DEU-EE42A5D2,Super Chabela,Pequeña,I5610.02,Comida rápida y food trucks,2025-01-11,2026-03-18,Loja,Loja,-4.043245,-79.168522,Hilda Proaño
DEU-AAEC5E32,Mi Lucho,Micro,I5610.01,Restaurantes y picanterías,2023-11-30,2026-03-09,Guayas,Guayaquil,-2.186622,-79.846466,Auto-gestionado
DEU-01263F6A,Coop. 24 de Mayo Mini,Micro,H4922.01,"Transporte (taxis, cooperativas)",2023-10-21,2026-03-31,Azuay,Cuenca,-2.824672,-78.917072,Auto-gestionado
DEU-26A09AA1,Tío Rosita,Micro,I5610.01,Restaurantes y picanterías,2023-04-12,2026-03-31,Guayas,Guayaquil,-2.257183,-79.993995,Lorena Dávila
DEU-09FE0E80,Mi Gladys Center,Micro,I5610.01,Restaurantes y picanterías,2021-08-17,2026-03-26,Pichincha,Quito,-0.174886,-78.500719,Auto-gestionado
DEU-2100E733,La Beto,Micro,G4541.01,Venta y repuestos de motos,2024-04-09,2026-02-24,Azuay,Cuenca,-3.038806,-78.978624,Auto-gestionado
DEU-449627BF,La Manuelito,Micro,I5610.02,Comida rápida y food trucks,2022-03-24,2026-03-06,Azuay,Cuenca,-2.865519,-78.968296,Esteban Ruiz
DEU-F61E0452,Don Chabela Express,Micro,C1071.01,Panaderías y pastelerías,2023-05-24,2026-03-20,Guayas,Guayaquil,-2.403459,-79.952386,Auto-gestionado
DEU-70B8C963,La Lucho Plus,Micro,G4721.01,Fruterías y mercados,2023-05-12,2026-03-24,Azuay,Cuenca,-2.913856,-79.019473,Auto-gestionado
DEU-92548A04,El Chabela,Micro,I5610.01,Restaurantes y picanterías,2024-04-04,2026-02-27,Pichincha,Quito,-0.25636,-78.41914,Esteban Ruiz
DEU-C9E00167,Tía Fanny Market,Micro,S9602.01,Peluquerías y salones de belleza,2022-07-18,2026-03-30,Pichincha,Quito,-0.158269,-78.438837,Auto-gestionado
DEU-0CB28D50,Mi Carmita,Micro,G4711.01,Tiendas de abarrotes y víveres,2024-02-12,2026-03-29,Manabí,Portoviejo,-1.058998,-80.489766,Auto-gestionado
DEU-8C6DB1BC,Doña Gladys Mini,Micro,S9602.01,Peluquerías y salones de belleza,2024-08-30,2026-03-21,Imbabura,Ibarra,0.216924,-78.287476,Auto-gestionado
DEU-4FD1AA96,Super Manuelito,Micro,I5610.01,Restaurantes y picanterías,2023-06-21,2026-03-21,Pichincha,Quito,-0.136253,-78.273457,Auto-gestionado
DEU-2A58785B,Coop. Los Andes,Micro,H4922.01,"Transporte (taxis, cooperativas)",2020-10-01,2026-03-30,Manabí,Portoviejo,-1.031913,-80.252755,Diana Cárdenas
DEU-4FD7585E,Farmacia Central Plus,Micro,G4774.01,Farmacias y artículos médicos,2024-06-05,2026-03-27,Guayas,Guayaquil,-2.041039,-79.849015,Natalia Rosales
DEU-1F930791,Doña Manuelito Mini,Pequeña,I5610.01,Restaurantes y picanterías,2023-08-25,2026-03-28,Guayas,Guayaquil,-2.108965,-79.856842,Jimena Salazar
DEU-24A1434F,Tía Mayra,Micro,G4721.01,Fruterías y mercados,2025-05-21,2026-03-22,Los Ríos,Babahoyo,-1.824793,-79.703389,Auto-gestionado
DEU-6D5BE884,El Pedrito Center,Micro,G4711.01,Tiendas de abarrotes y víveres,2024-03-04,2026-03-26,Pichincha,Quito,-0.266368,-78.314886,Auto-gestionado
DEU-972B9934,El Fanny Mini,Micro,G4719.01,Comercio mixto (bazar + abarrote),2024-01-26,2026-03-30,Bolívar,Guaranda,-1.460725,-78.846909,Auto-gestionado
DEU-7BFD2D1B,Tía Nelly Plus,Pequeña,I5610.02,Comida rápida y food trucks,2023-07-11,2026-03-14,Guayas,Guayaquil,-2.148835,-79.959058,Esteban Ruiz
DEU-90673F4A,Doña Juanito,Micro,G4773.01,Bazares y papelerías,2023-10-03,2026-03-30,Manabí,Portoviejo,-0.950273,-80.305399,Fernanda Ortiz
DEU-B37B2266,Don Beto Market,Micro,G4711.01,Tiendas de abarrotes y víveres,2024-07-22,2026-03-25,Manabí,Portoviejo,-1.126969,-80.358679,Auto-gestionado
DEU-C5BD1DF1,Don Mayra Market,Pequeña,G4719.01,Comercio mixto (bazar + abarrote),2023-09-23,2026-03-09,Pichincha,Quito,-0.218709,-78.453443,Paola Intriago
DEU-77A5951F,La Carmita Market,Micro,I5610.01,Restaurantes y picanterías,2021-09-03,2026-02-26,Esmeraldas,Esmeraldas,0.867026,-79.639658,Fernanda Ortiz
DEU-A22258D6,Tía Juanito,Micro,I5630.01,Cafeterías y panaderías,2023-03-29,2026-03-30,Guayas,Guayaquil,-2.057441,-80.049505,Auto-gestionado
DEU-51C63D27,Don Anita Market,Micro,G4541.01,Venta y repuestos de motos,2026-02-27,2026-03-18,Pichincha,Quito,-0.067217,-78.666825,Kevin Jaramillo
DEU-6DB6EA4D,Don Juanito,Micro,I5630.01,Cafeterías y panaderías,2024-05-13,2026-03-11,Guayas,Guayaquil,-2.149189,-79.837825,Auto-gestionado
DEU-6BC59864,Doña Juanito Market,Micro,I5610.01,Restaurantes y picanterías,2025-02-09,2026-03-09,Pichincha,Quito,-0.206614,-78.3614,Auto-gestionado
DEU-540E8BC0,Don Mayra Plus,Micro,I5630.01,Cafeterías y panaderías,2022-07-20,2026-03-20,Imbabura,Ibarra,0.300882,-78.065962,Auto-gestionado
DEU-F9A203F7,Coop. 24 de Mayo,Micro,H4922.01,"Transporte (taxis, cooperativas)",2025-07-21,2026-03-30,Guayas,Guayaquil,-2.089432,-79.885172,Auto-gestionado
DEU-624D0ED0,Don Beto Center,Pequeña,I5630.01,Cafeterías y panaderías,2024-08-26,2026-03-29,Guayas,Guayaquil,-2.204596,-79.998664,Diana Cárdenas
DEU-A3678B18,Don Kléber,Micro,G4721.01,Fruterías y mercados,2023-03-11,2026-03-13,Loja,Loja,-3.895932,-79.31867,Auto-gestionado
DEU-3A46C32E,Mi Kléber,Pequeña,G4711.01,Tiendas de abarrotes y víveres,2024-09-13,2026-03-25,Guayas,Guayaquil,-2.189609,-79.930178,Gabriel Aguilar
DEU-2874419D,Boutique Anita Mini,Pequeña,G4771.01,Boutiques y ropa,2024-10-15,2026-03-26,Manabí,Portoviejo,-1.103523,-80.525055,Lorena Dávila
DEU-019569B1,El Rosita Center,Micro,G4711.01,Tiendas de abarrotes y víveres,2022-08-28,2025-12-30,Sucumbíos,Nueva Loja,0.090686,-77.059199,Auto-gestionado
DEU-D78BDF28,La Rosita Mini,Micro,G4711.01,Tiendas de abarrotes y víveres,2023-08-29,2026-03-23,Guayas,Guayaquil,-2.187966,-79.845603,Auto-gestionado
DEU-9295A93A,Tía Nelly Center,Micro,I5610.03,Bares y cantinas,2022-06-23,2026-03-18,Pichincha,Quito,-0.148661,-78.457315,Auto-gestionado
DEU-7E8C1B05,Mi Juanito Mini,Micro,G4711.01,Tiendas de abarrotes y víveres,2024-03-17,2026-03-31,Guayas,Guayaquil,-2.26032,-79.951096,Auto-gestionado
DEU-44CB1B30,Farmacia Sana,Micro,G4774.01,Farmacias y artículos médicos,2024-01-29,2026-03-19,Azuay,Cuenca,-2.811628,-79.051016,Carlos Mendoza
DEU-EEFC6197,Farmacia Vida Express,Pequeña,G4774.01,Farmacias y artículos médicos,2024-07-10,2026-03-26,Pichincha,Quito,-0.196915,-78.421103,Hilda Proaño
DEU-180365D3,Don Martita Plus,Micro,I5610.01,Restaurantes y picanterías,2022-09-04,2026-03-26,Guayas,Guayaquil,-2.282256,-80.003283,Kevin Jaramillo
DEU-42D1B98E,La Nelly Express,Micro,G4711.01,Tiendas de abarrotes y víveres,2024-12-07,2026-03-15,Pichincha,Quito,-0.145822,-78.67038,Auto-gestionado
DEU-133DD9D8,Doña Pedrito Mini,Pequeña,G4711.01,Tiendas de abarrotes y víveres,2022-06-10,2026-03-16,Loja,Loja,-4.037395,-79.169086,Fernanda Ortiz
DEU-26DAAA62,El Kléber Market,Micro,G4711.01,Tiendas de abarrotes y víveres,2025-12-21,2026-03-28,Pichincha,Quito,-0.051229,-78.488684,Auto-gestionado
DEU-48B13463,Tía Lucho,Micro,I5630.01,Cafeterías y panaderías,2023-01-06,2026-03-27,Pichincha,Quito,-0.185268,-78.409108,Hilda Proaño
DEU-E828A010,El Juanito,Micro,S9602.01,Peluquerías y salones de belleza,2021-04-22,2026-03-10,Manabí,Portoviejo,-1.157665,-80.429083,Auto-gestionado
DEU-94920040,Mi Pedrito Center,Micro,G4711.01,Tiendas de abarrotes y víveres,2022-03-15,2026-03-24,Pichincha,Quito,-0.278006,-78.484613,Auto-gestionado
DEU-EFC85434,Mi Martita Express,Micro,I5630.01,Cafeterías y panaderías,2022-07-04,2026-03-31,Guayas,Guayaquil,-2.083798,-79.952504,Auto-gestionado
DEU-0185E13D,Super Carmita Market,Micro,C1071.01,Panaderías y pastelerías,2020-06-02,2026-03-31,Azuay,Cuenca,-2.856343,-79.000392,Auto-gestionado
DEU-15E9B149,Mi Pancho Center,Micro,G4711.01,Tiendas de abarrotes y víveres,2022-02-16,2026-03-30,Azuay,Cuenca,-2.936464,-79.023392,Auto-gestionado
DEU-15C3FACA,Tío Anita Mini,Micro,G4541.01,Venta y repuestos de motos,2022-05-20,2026-03-19,Pichincha,Quito,-0.155167,-78.457318,Auto-gestionado
DEU-EF99280B,Super Lucho Express,Micro,S9602.01,Peluquerías y salones de belleza,2023-01-09,2026-03-25,Pichincha,Quito,-0.204874,-78.676051,Auto-gestionado
DEU-99061771,Farmacia Vida Market,Mediana,G4774.01,Farmacias y artículos médicos,2023-03-28,2026-03-30,Pichincha,Quito,-0.203598,-78.439443,Gabriel Aguilar
DEU-E50A49D3,Farmacia Sana Plus,Micro,G4774.01,Farmacias y artículos médicos,2024-06-08,2026-03-17,Manabí,Portoviejo,-1.080716,-80.512755,Auto-gestionado
DEU-ADED6D21,Boutique Manuelito,Micro,G4771.01,Boutiques y ropa,2024-08-11,2026-03-31,Los Ríos,Babahoyo,-1.617338,-79.548502,Auto-gestionado
DEU-B7FA3159,Doña Pancho,Micro,G4721.01,Fruterías y mercados,2020-07-25,2026-02-12,Loja,Loja,-3.976553,-79.394477,Paola Intriago
DEU-9475FD62,Doña Manuelito Market,Micro,I5610.02,Comida rápida y food trucks,2022-09-03,2026-03-24,Guayas,Guayaquil,-2.158319,-79.921903,Auto-gestionado
DEU-107BDC13,El Manuelito Center,Mediana,C1071.01,Panaderías y pastelerías,2024-06-25,2026-03-23,Pichincha,Quito,-0.195245,-78.497147,Oswaldo Ñacato
DEU-87241701,Tía Segundo Center,Micro,I5610.01,Restaurantes y picanterías,2023-03-23,2026-03-30,Santa Elena,Santa Elena,-2.31523,-80.812474,Diana Cárdenas
DEU-FCAAD91C,Farmacia Sana Plus,Micro,G4774.01,Farmacias y artículos médicos,2024-10-17,2026-03-12,Guayas,Guayaquil,-2.100547,-80.00859,Auto-gestionado
DEU-80934BBA,Mi Jorgito Express,Micro,I5610.01,Restaurantes y picanterías,2024-04-15,2026-03-31,Guayas,Guayaquil,-2.026139,-80.040339,Auto-gestionado
DEU-956F7209,Tía Gladys Center,Micro,G4711.01,Tiendas de abarrotes y víveres,2022-06-21,2026-03-30,Pichincha,Quito,-0.129457,-78.457954,Auto-gestionado
DEU-1BC3ACBA,Super Kléber Express,Micro,I5630.01,Cafeterías y panaderías,2021-10-03,2026-03-19,Azuay,Cuenca,-2.903151,-79.001916,Carlos Mendoza
DEU-03F8E9FF,El Mayra,Micro,S9602.01,Peluquerías y salones de belleza,2023-03-01,2026-03-29,Manabí,Portoviejo,-1.137055,-80.521451,Carlos Mendoza
DEU-CC8C07C6,Farmacia del Barrio Express,Micro,G4774.01,Farmacias y artículos médicos,2020-05-27,2026-03-29,Guayas,Guayaquil,-2.017271,-80.020232,Auto-gestionado
DEU-038659A2,El Pedrito Plus,Micro,I5610.02,Comida rápida y food trucks,2024-12-06,2026-03-31,Pichincha,Quito,-0.073746,-78.373195,Auto-gestionado
DEU-5040F351,Farmacia del Barrio,Micro,G4774.01,Farmacias y artículos médicos,2026-02-27,2026-03-12,Santo Domingo,Santo Domingo,-0.151661,-79.079585,Auto-gestionado
DEU-BD1E7E2C,El Chabela Plus,Micro,I5610.01,Restaurantes y picanterías,2022-02-20,2026-03-02,Santo Domingo,Santo Domingo,-0.274531,-79.135229,Auto-gestionado
DEU-096D2EC1,Mi Jorgito,Micro,G4721.01,Fruterías y mercados,2023-03-18,2026-02-03,Tungurahua,Ambato,-1.311388,-78.530141,Auto-gestionado
DEU-C709A796,Coop. Reina del Camino Center,Micro,H4922.01,"Transporte (taxis, cooperativas)",2025-06-16,2026-03-29,Santa Elena,Santa Elena,-2.165891,-80.773947,Auto-gestionado
DEU-E74861CE,Mi Mayra Market,Micro,G4711.01,Tiendas de abarrotes y víveres,2023-08-23,2026-03-11,El Oro,Machala,-3.416358,-79.951645,Auto-gestionado
DEU-E27B2456,Tía Kléber Mini,Micro,G4711.01,Tiendas de abarrotes y víveres,2023-10-01,2026-02-25,Guayas,Guayaquil,-2.162147,-79.916339,Andrea Vásconez
DEU-B17C895C,Super Martita Market,Micro,G4711.01,Tiendas de abarrotes y víveres,2023-10-23,2026-03-30,Manabí,Portoviejo,-1.042241,-80.443674,Auto-gestionado
DEU-4D98F99D,La Pedrito Center,Micro,I5610.03,Bares y cantinas,2023-11-28,2026-03-30,Guayas,Guayaquil,-2.145895,-79.889832,Oswaldo Ñacato
DEU-D76C926D,El Fanny Express,Micro,S9602.01,Peluquerías y salones de belleza,2023-10-20,2026-03-02,Guayas,Guayaquil,-2.254608,-79.920072,Auto-gestionado
DEU-AED5D633,El Carmita Center,Micro,S9602.01,Peluquerías y salones de belleza,2025-05-13,2026-03-02,Carchi,Tulcán,0.87051,-77.670866,Auto-gestionado
DEU-0E477149,Boutique Rosita,Micro,G4771.01,Boutiques y ropa,2022-01-20,2026-03-13,Tungurahua,Ambato,-1.204731,-78.646093,Auto-gestionado
DEU-9193ABD6,Mi Nelly,Micro,G4711.01,Tiendas de abarrotes y víveres,2022-09-20,2026-03-21,Los Ríos,Babahoyo,-1.787604,-79.435863,Auto-gestionado
DEU-1E4E5FEE,Mi Pedrito,Micro,G4773.01,Bazares y papelerías,2025-10-12,2026-03-14,Guayas,Guayaquil,-2.218346,-79.897223,Auto-gestionado
DEU-E45D5DDA,Mi Lucho Center,Micro,G4711.01,Tiendas de abarrotes y víveres,2021-12-06,2026-03-14,Santo Domingo,Santo Domingo,-0.17775,-79.189118,Auto-gestionado
DEU-DFE9E1F3,Mi Rosita Center,Micro,I5610.03,Bares y cantinas,2023-02-20,2026-03-31,Pichincha,Quito,-0.100978,-78.526173,Auto-gestionado
DEU-A9A661D5,El Juanito,Micro,I5610.01,Restaurantes y picanterías,2023-11-17,2026-03-21,Orellana,Coca,-0.444719,-77.156308,Auto-gestionado
DEU-CC7D4AD4,Tío Mayra,Mediana,I5610.01,Restaurantes y picanterías,2024-05-31,2026-03-23,Pichincha,Quito,-0.175329,-78.481845,Fernanda Ortiz
DEU-4D596613,El Pedrito,Micro,C1071.01,Panaderías y pastelerías,2023-01-17,2026-02-19,Loja,Loja,-4.0753,-79.179045,Auto-gestionado
DEU-1D2C9492,La Jorgito Express,Micro,G4773.01,Bazares y papelerías,2023-11-10,2026-03-30,El Oro,Machala,-3.169004,-80.111005,Auto-gestionado
DEU-9571ECC6,Tía Segundo Center,Micro,G4773.01,Bazares y papelerías,2025-11-03,2026-03-28,Guayas,Guayaquil,-2.10455,-79.850354,Esteban Ruiz
DEU-5C123796,La Chabela,Micro,I5610.01,Restaurantes y picanterías,2022-01-13,2026-01-13,Guayas,Guayaquil,-2.054454,-79.857803,Auto-gestionado
DEU-4430D918,Tío Nelly,Micro,G4711.01,Tiendas de abarrotes y víveres,2023-06-11,2026-03-15,Pichincha,Quito,-0.080473,-78.503658,Auto-gestionado
DEU-FCBB871D,Doña Juanito,Micro,G4711.01,Tiendas de abarrotes y víveres,2025-07-24,2026-01-25,Los Ríos,Babahoyo,-1.818894,-79.413863,Gabriel Aguilar
DEU-F0DAE7E7,La Beto Plus,Micro,I5610.01,Restaurantes y picanterías,2024-11-09,2026-03-26,Imbabura,Ibarra,0.318459,-78.070507,Iván Moreno
DEU-10DC17FD,Don Carmita Mini,Micro,G4773.01,Bazares y papelerías,2020-07-29,2026-03-19,Chimborazo,Riobamba,-1.72606,-78.715476,Auto-gestionado
DEU-1BF278CA,Super Lucho,Micro,C1071.01,Panaderías y pastelerías,2023-02-08,2026-02-14,Guayas,Guayaquil,-2.172173,-79.849119,Auto-gestionado
DEU-0AD4436F,Don Kléber,Micro,I5610.01,Restaurantes y picanterías,2022-08-20,2026-03-30,Guayas,Guayaquil,-2.13375,-79.966444,Auto-gestionado
DEU-D66454A0,Doña Mayra,Micro,G4773.01,Bazares y papelerías,2025-04-15,2026-03-02,Cotopaxi,Latacunga,-0.999778,-78.608694,Auto-gestionado
DEU-4221D4E0,Tío Chabela Center,Micro,I5630.01,Cafeterías y panaderías,2023-04-16,2026-03-24,Los Ríos,Babahoyo,-1.815047,-79.517233,Auto-gestionado
DEU-D8DDC6F8,Boutique Kléber Market,Micro,G4771.01,Boutiques y ropa,2024-10-17,2026-03-11,Azuay,Cuenca,-2.941092,-79.077739,Auto-gestionado
DEU-AA131883,Mi Carmita,Micro,G4711.01,Tiendas de abarrotes y víveres,2020-09-23,2026-02-13,Pichincha,Quito,-0.28186,-78.611249,Kevin Jaramillo
DEU-49B5041C,El Fanny,Micro,C1071.01,Panaderías y pastelerías,2024-10-29,2026-03-21,El Oro,Machala,-3.230099,-80.007631,Auto-gestionado
DEU-0A38429F,Mi Rosita Express,Micro,G4721.01,Fruterías y mercados,2023-07-13,2026-03-11,Guayas,Guayaquil,-2.056137,-79.811682,Paola Intriago
DEU-D787BD33,Don Rosita,Micro,I5610.01,Restaurantes y picanterías,2023-02-24,2026-03-18,Loja,Loja,-3.925013,-79.325138,Oswaldo Ñacato
DEU-05C70964,Super Pancho,Micro,S9601.01,Lavanderías y tintorerías,2025-09-06,2026-03-20,Pichincha,Quito,-0.117967,-78.314107,Mateo Pérez
DEU-7B96D059,Coop. Trans Vencedores Plus,Micro,H4922.01,"Transporte (taxis, cooperativas)",2024-01-10,2026-03-14,Pichincha,Quito,-0.206935,-78.403714,Auto-gestionado
DEU-47EE07D4,Super Beto,Micro,I5610.01,Restaurantes y picanterías,2022-04-19,2026-03-30,Pichincha,Quito,-0.238619,-78.483431,Carlos Mendoza
DEU-5D012373,Super Martita Center,Micro,G4773.01,Bazares y papelerías,2024-07-31,2026-03-13,Guayas,Guayaquil,-2.233215,-79.947608,Auto-gestionado
DEU-024CDCAD,Mi Pancho,Micro,G4711.01,Tiendas de abarrotes y víveres,2023-08-07,2026-03-28,Guayas,Guayaquil,-2.141377,-79.873819,Natalia Rosales
DEU-63A3076E,Don Chabela,Mediana,G4721.01,Fruterías y mercados,2020-09-12,2026-03-22,Guayas,Guayaquil,-2.14715,-79.916325,Fernanda Ortiz
DEU-1D37518E,La Lucho Mini,Micro,I5630.01,Cafeterías y panaderías,2024-10-29,2026-03-28,Santo Domingo,Santo Domingo,-0.339913,-79.100989,Diana Cárdenas
DEU-7119DFC1,El Pedrito Center,Micro,G4773.01,Bazares y papelerías,2025-06-04,2026-03-08,Azuay,Cuenca,-2.964095,-79.15854,Hilda Proaño
DEU-6595D720,Mi Manuelito Plus,Micro,G4711.01,Tiendas de abarrotes y víveres,2020-05-10,2026-03-24,Guayas,Guayaquil,-2.199555,-79.792593,Auto-gestionado
DEU-77503E0B,Mi Juanito,Micro,I5630.01,Cafeterías y panaderías,2022-08-06,2026-03-22,Guayas,Guayaquil,-2.262203,-79.869835,Auto-gestionado
DEU-6E02823D,Don Jorgito,Micro,I5630.01,Cafeterías y panaderías,2025-05-08,2026-02-10,Guayas,Guayaquil,-2.04313,-80.040086,Auto-gestionado
DEU-7A8C5227,La Anita,Micro,S9602.01,Peluquerías y salones de belleza,2020-04-15,2026-03-25,Manabí,Portoviejo,-1.274681,-80.418606,Auto-gestionado
DEU-2F8009ED,Tía Jorgito,Micro,G4721.01,Fruterías y mercados,2025-06-27,2026-03-26,Guayas,Guayaquil,-2.018275,-79.928203,Oswaldo Ñacato
DEU-2552AE13,La Pancho Express,Pequeña,G4711.01,Tiendas de abarrotes y víveres,2024-05-23,2026-03-22,Pichincha,Quito,-0.1303,-78.49528,Diana Cárdenas
DEU-078C9532,El Pancho Market,Pequeña,G4711.01,Tiendas de abarrotes y víveres,2022-06-06,2026-03-29,Guayas,Guayaquil,-2.144019,-79.900991,Hilda Proaño
DEU-18C962F4,Doña Chabela Market,Micro,G4711.01,Tiendas de abarrotes y víveres,2024-11-01,2026-03-13,Imbabura,Ibarra,0.364124,-78.269051,Natalia Rosales
DEU-25CCF248,Boutique Carmita Express,Mediana,G4771.01,Boutiques y ropa,2023-01-20,2026-03-12,Guayas,Guayaquil,-2.169667,-79.903179,Andrea Vásconez
DEU-93B898F7,Doña Juanito Mini,Micro,I5630.01,Cafeterías y panaderías,2025-09-05,2026-03-30,Loja,Loja,-3.925254,-79.130352,Auto-gestionado
DEU-1B9E58AF,Tío Lucho Center,Micro,I5610.01,Restaurantes y picanterías,2022-05-29,2026-03-27,El Oro,Machala,-3.29402,-79.956367,Auto-gestionado
DEU-06B95694,Tía Pedrito,Micro,I5610.01,Restaurantes y picanterías,2024-11-08,2026-03-11,El Oro,Machala,-3.302501,-79.848935,Mateo Pérez
DEU-8D7D204E,Don Gladys,Pequeña,I5610.03,Bares y cantinas,2024-01-14,2026-03-22,Guayas,Guayaquil,-2.274154,-79.920977,Mateo Pérez
DEU-8D61BC37,Don Beto,Micro,G4711.01,Tiendas de abarrotes y víveres,2023-09-02,2026-03-25,Los Ríos,Babahoyo,-1.849721,-79.52068,Auto-gestionado
DEU-BDC5D201,Don Nelly Center,Micro,I5610.02,Comida rápida y food trucks,2023-11-04,2026-03-30,Pichincha,Quito,-0.12458,-78.404311,Auto-gestionado
DEU-14D04714,El Juanito Center,Micro,G4541.01,Venta y repuestos de motos,2023-06-04,2026-03-24,Chimborazo,Riobamba,-1.547632,-78.668094,Hilda Proaño
DEU-108ED0B6,Super Carmita Express,Pequeña,I5610.01,Restaurantes y picanterías,2023-07-30,2026-03-19,Guayas,Guayaquil,-2.196785,-79.926805,Oswaldo Ñacato
DEU-7D4C712C,Tía Beto Market,Micro,C1071.01,Panaderías y pastelerías,2026-01-04,2026-03-19,Guayas,Guayaquil,-2.211153,-80.035325,Auto-gestionado
DEU-83FC91D7,Mi Anita Center,Micro,G4773.01,Bazares y papelerías,2022-04-07,2026-03-29,Pichincha,Quito,-0.272087,-78.387199,Auto-gestionado
DEU-A8C33442,Tío Juanito,Micro,G4711.01,Tiendas de abarrotes y víveres,2020-10-20,2026-03-28,Guayas,Guayaquil,-2.269767,-79.90845,Auto-gestionado
DEU-242876FF,La Juanito Plus,Micro,G4719.01,Comercio mixto (bazar + abarrote),2025-10-22,2026-03-31,Pichincha,Quito,-0.162673,-78.334121,Auto-gestionado
DEU-5AB190A7,Tío Segundo Mini,Micro,G4711.01,Tiendas de abarrotes y víveres,2022-07-15,2026-03-28,Los Ríos,Babahoyo,-1.73997,-79.483723,Jimena Salazar
DEU-B0E1381B,Mi Segundo,Micro,G4711.01,Tiendas de abarrotes y víveres,2024-04-19,2026-03-28,Pichincha,Quito,-0.165554,-78.44402,Andrea Vásconez
DEU-6499636E,Super Gladys Express,Micro,I5610.03,Bares y cantinas,2023-06-11,2026-03-03,Pichincha,Quito,-0.181712,-78.45772,Auto-gestionado
DEU-1F11D492,Don Jorgito,Micro,G4541.01,Venta y repuestos de motos,2023-01-04,2026-03-24,Cañar,Azogues,-2.706724,-78.813222,Auto-gestionado
DEU-533224B4,Tío Nelly Mini,Micro,I5610.02,Comida rápida y food trucks,2022-12-22,2026-03-28,Pichincha,Quito,-0.07279,-78.347984,Auto-gestionado
DEU-BF399E89,La Jorgito Plus,Micro,G4711.01,Tiendas de abarrotes y víveres,2022-08-17,2026-02-21,Guayas,Guayaquil,-2.016126,-80.008344,Lorena Dávila
DEU-A516DF40,Doña Pedrito,Micro,G4711.01,Tiendas de abarrotes y víveres,2023-12-24,2026-03-16,Loja,Loja,-4.127918,-79.273607,Jimena Salazar
DEU-CC33FB17,El Pedrito,Micro,S9602.01,Peluquerías y salones de belleza,2024-07-17,2026-03-16,Guayas,Guayaquil,-2.092186,-79.890874,Auto-gestionado
DEU-7206556E,Tía Juanito Mini,Micro,G4711.01,Tiendas de abarrotes y víveres,2025-04-08,2026-03-26,Azuay,Cuenca,-2.964695,-79.085736,Auto-gestionado
DEU-09E046A1,Super Rosita Market,Micro,S9601.01,Lavanderías y tintorerías,2024-01-07,2026-03-25,Manabí,Portoviejo,-1.036753,-80.368005,Esteban Ruiz
DEU-434EE8BA,Tía Kléber,Micro,I5630.01,Cafeterías y panaderías,2023-12-23,2026-03-23,Tungurahua,Ambato,-1.271544,-78.60882,Auto-gestionado
DEU-185FE8A5,Farmacia del Barrio Mini,Micro,G4774.01,Farmacias y artículos médicos,2023-06-22,2026-03-24,Cotopaxi,Latacunga,-0.904895,-78.590568,Gabriel Aguilar
DEU-F38C3D92,Super Pancho Market,Micro,G4761.01,Librerías y útiles escolares,2021-07-09,2026-02-28,Tungurahua,Ambato,-1.325069,-78.631008,Auto-gestionado
DEU-AC69ED9C,Don Beto,Micro,G4773.01,Bazares y papelerías,2024-11-02,2026-03-16,Pichincha,Quito,-0.249066,-78.598977,Auto-gestionado
DEU-6EAE7F60,Boutique Lucho,Micro,G4771.01,Boutiques y ropa,2021-01-17,2026-03-26,Pichincha,Quito,-0.08937,-78.503172,Auto-gestionado
DEU-00DE02C6,Tía Gladys,Micro,I5610.01,Restaurantes y picanterías,2022-12-16,2026-03-16,Guayas,Guayaquil,-2.155226,-79.772858,Andrea Vásconez
DEU-17E46588,Super Kléber Center,Micro,G4711.01,Tiendas de abarrotes y víveres,2023-01-10,2026-03-09,Pichincha,Quito,0.007226,-78.525083,Auto-gestionado
DEU-96F49CDD,Tía Rosita,Micro,I5610.02,Comida rápida y food trucks,2023-11-20,2026-02-26,Imbabura,Ibarra,0.21505,-77.911284,Auto-gestionado
DEU-D53A7AA6,La Gladys Plus,Pequeña,S9601.01,Lavanderías y tintorerías,2023-12-16,2026-03-29,Manabí,Portoviejo,-1.204982,-80.423941,Carlos Mendoza
DEU-477F1BC0,La Manuelito,Mediana,G4773.01,Bazares y papelerías,2025-06-16,2026-03-23,Guayas,Guayaquil,-2.153703,-79.881382,Jimena Salazar
DEU-B62457BF,Mi Jorgito,Micro,I5610.01,Restaurantes y picanterías,2023-12-18,2026-02-16,Guayas,Guayaquil,-2.217361,-79.943046,Auto-gestionado
DEU-D5D4DCB0,Tío Martita Center,Pequeña,G4711.01,Tiendas de abarrotes y víveres,2020-09-12,2026-03-23,Azuay,Cuenca,-2.897825,-78.977983,Esteban Ruiz
DEU-8EB09A11,Doña Anita Center,Micro,C1071.01,Panaderías y pastelerías,2022-04-18,2026-03-30,El Oro,Machala,-3.264211,-79.967202,Auto-gestionado
DEU-4E38CD71,Don Carmita,Pequeña,G4773.01,Bazares y papelerías,2024-10-17,2026-03-25,Pichincha,Quito,-0.183818,-78.476683,Esteban Ruiz
DEU-7CA3651D,Super Martita,Micro,I5630.01,Cafeterías y panaderías,2023-12-18,2026-03-19,Pichincha,Quito,-0.167556,-78.292102,Hilda Proaño
DEU-B9AA93F1,Doña Pedrito Mini,Micro,I5610.02,Comida rápida y food trucks,2023-02-17,2026-03-27,Santo Domingo,Santo Domingo,-0.235096,-79.125246,Auto-gestionado
DEU-B7E85E3D,Farmacia Vida,Micro,G4774.01,Farmacias y artículos médicos,2024-11-01,2026-03-26,El Oro,Machala,-3.193876,-79.723679,Carlos Mendoza
DEU-F9C0E1E6,La Beto Plus,Micro,I5610.01,Restaurantes y picanterías,2023-04-25,2026-03-21,Guayas,Guayaquil,-2.181471,-79.964299,Auto-gestionado
DEU-E5EC5040,Doña Jorgito,Micro,G4541.01,Venta y repuestos de motos,2024-12-24,2026-03-27,Pichincha,Quito,-0.286374,-78.637695,Auto-gestionado
DEU-962F8799,Mi Martita,Micro,G4711.01,Tiendas de abarrotes y víveres,2024-09-26,2026-03-28,Tungurahua,Ambato,-1.285611,-78.601845,Oswaldo Ñacato
DEU-1AD601D9,Tía Pedrito Mini,Micro,I5610.01,Restaurantes y picanterías,2022-01-26,2026-03-22,Loja,Loja,-3.993575,-79.175894,Auto-gestionado
DEU-D22571D4,Tío Martita Plus,Pequeña,G4711.01,Tiendas de abarrotes y víveres,2024-09-20,2026-03-31,Pichincha,Quito,-0.230328,-78.421098,Natalia Rosales
DEU-90CE7C86,La Martita Market,Micro,G4541.01,Venta y repuestos de motos,2024-10-10,2026-03-02,Guayas,Guayaquil,-2.261874,-79.993826,Lorena Dávila
DEU-D8587765,Doña Manuelito Center,Micro,I5610.01,Restaurantes y picanterías,2022-11-12,2026-03-23,Manabí,Portoviejo,-1.110559,-80.395815,Auto-gestionado
DEU-1297A4E7,Tío Fanny,Micro,G4541.01,Venta y repuestos de motos,2023-05-25,2026-03-23,Los Ríos,Babahoyo,-1.710675,-79.334291,Auto-gestionado
DEU-859DD7C5,El Martita Plus,Micro,I5630.01,Cafeterías y panaderías,2024-09-17,2026-03-23,Pichincha,Quito,-0.245084,-78.423892,Auto-gestionado
DEU-CCBE0B71,La Juanito Plus,Micro,I5610.03,Bares y cantinas,2021-01-11,2026-03-19,Guayas,Guayaquil,-2.143288,-79.990379,Auto-gestionado
DEU-1154A2BE,Tío Gladys Center,Micro,I5610.01,Restaurantes y picanterías,2025-09-24,2026-03-23,Guayas,Guayaquil,-2.290448,-79.849353,Auto-gestionado
DEU-D1D6412F,Doña Carmita,Micro,I5610.01,Restaurantes y picanterías,2025-02-06,2026-03-01,Guayas,Guayaquil,-2.219864,-79.861879,Auto-gestionado
DEU-63673534,Super Pedrito Plus,Micro,I5610.02,Comida rápida y food trucks,2023-07-10,2026-03-15,Guayas,Guayaquil,-2.155581,-79.993882,Auto-gestionado
DEU-BDDC7F48,Mi Lucho,Micro,G4711.01,Tiendas de abarrotes y víveres,2023-08-15,2026-03-28,Cotopaxi,Latacunga,-0.873711,-78.51105,Auto-gestionado
DEU-E2BF0D5A,Doña Pancho Center,Micro,I5610.01,Restaurantes y picanterías,2024-12-06,2026-03-02,Esmeraldas,Esmeraldas,0.996219,-79.897574,Auto-gestionado
DEU-C6D33517,Coop. Los Andes,Micro,H4922.01,"Transporte (taxis, cooperativas)",2025-02-01,2026-03-28,Guayas,Guayaquil,-2.038329,-79.833951,Auto-gestionado
DEU-34A56B3D,Tío Rosita,Micro,G4711.01,Tiendas de abarrotes y víveres,2024-07-15,2026-03-27,Guayas,Guayaquil,-2.110714,-79.893689,Lorena Dávila
DEU-05D5BE5B,Tío Rosita Plus,Micro,I5610.01,Restaurantes y picanterías,2023-01-21,2026-03-23,Guayas,Guayaquil,-2.127627,-79.852306,Auto-gestionado
DEU-DB8DC1C9,Tío Fanny,Micro,I5610.01,Restaurantes y picanterías,2025-06-02,2026-03-22,Santa Elena,Santa Elena,-2.286463,-80.854813,Auto-gestionado
DEU-161668DB,Boutique Segundo Center,Micro,G4771.01,Boutiques y ropa,2022-08-27,2026-03-31,Tungurahua,Ambato,-1.321047,-78.707323,Auto-gestionado
DEU-4732E1AA,Super Chabela Express,Micro,I5610.02,Comida rápida y food trucks,2024-10-26,2026-03-27,Santo Domingo,Santo Domingo,-0.316613,-79.177477,Auto-gestionado
DEU-C5485600,Tío Nelly Market,Micro,I5610.01,Restaurantes y picanterías,2022-11-28,2026-03-06,Chimborazo,Riobamba,-1.772055,-78.636848,Esteban Ruiz
DEU-76E79162,La Mayra Market,Micro,S9602.01,Peluquerías y salones de belleza,2024-10-01,2026-03-12,Guayas,Guayaquil,-1.969745,-79.856472,Natalia Rosales
DEU-3A6E0749,Farmacia Salud Center,Micro,G4774.01,Farmacias y artículos médicos,2025-05-19,2026-03-25,Pichincha,Quito,-0.173041,-78.515266,Auto-gestionado
DEU-54BE57BD,La Kléber,Micro,G4721.01,Fruterías y mercados,2024-09-03,2026-03-28,Pichincha,Quito,-0.085612,-78.319851,Auto-gestionado
DEU-7198FAC2,Boutique Gladys Plus,Micro,G4771.01,Boutiques y ropa,2022-10-23,2026-03-19,Pichincha,Quito,-0.272412,-78.430538,Auto-gestionado
DEU-D2E1E0C2,Don Anita,Micro,G4773.01,Bazares y papelerías,2024-04-24,2026-02-12,Imbabura,Ibarra,0.314806,-78.061775,Auto-gestionado
DEU-CEEFF129,Boutique Nelly Express,Micro,G4771.01,Boutiques y ropa,2023-11-29,2026-03-28,Azuay,Cuenca,-2.942808,-79.05821,Auto-gestionado
DEU-41852F5B,Tío Fanny Center,Micro,G4719.01,Comercio mixto (bazar + abarrote),2022-02-27,2026-03-14,Imbabura,Ibarra,0.383334,-78.198906,Auto-gestionado
DEU-EB623B21,Tío Anita,Micro,I5610.02,Comida rápida y food trucks,2023-04-18,2026-03-25,El Oro,Machala,-3.239768,-79.95898,Auto-gestionado
DEU-DE60CB5F,Doña Gladys Center,Pequeña,I5610.01,Restaurantes y picanterías,2022-12-19,2026-03-22,Pichincha,Quito,-0.146176,-78.454519,Esteban Ruiz
DEU-3A22C40F,Mi Anita,Micro,I5610.02,Comida rápida y food trucks,2024-07-06,2026-03-30,Pichincha,Quito,-0.113941,-78.614883,Auto-gestionado
DEU-BBD042DC,Super Mayra Center,Micro,G4773.01,Bazares y papelerías,2022-03-02,2026-03-30,Guayas,Guayaquil,-2.239267,-79.914958,Auto-gestionado
DEU-E3B50A6B,La Mayra,Micro,G4711.01,Tiendas de abarrotes y víveres,2024-02-21,2026-03-23,Pichincha,Quito,-0.201562,-78.566885,Auto-gestionado
DEU-DF24C95B,La Martita Express,Micro,I5610.02,Comida rápida y food trucks,2022-11-19,2026-03-27,Pichincha,Quito,-0.265825,-78.410064,Auto-gestionado
DEU-BEB8C80C,Mi Pedrito Express,Micro,I5610.02,Comida rápida y food trucks,2021-04-02,2026-03-30,Los Ríos,Babahoyo,-1.922724,-79.538807,Auto-gestionado
DEU-87352946,La Gladys Center,Pequeña,I5610.01,Restaurantes y picanterías,2025-04-26,2026-03-31,Santa Elena,Santa Elena,-2.250649,-80.743639,Carlos Mendoza
DEU-88FC8772,Boutique Fanny Express,Micro,G4771.01,Boutiques y ropa,2024-02-23,2026-03-06,El Oro,Machala,-3.264451,-79.979437,Auto-gestionado
DEU-3E4DBA2A,Farmacia Central Market,Micro,G4774.01,Farmacias y artículos médicos,2026-02-28,2026-03-28,Manabí,Portoviejo,-1.074142,-80.417756,Auto-gestionado
DEU-5F484317,El Fanny,Mediana,G4719.01,Comercio mixto (bazar + abarrote),2022-12-22,2026-02-09,Manabí,Portoviejo,-1.018297,-80.452146,Andrea Vásconez
DEU-BFBD4C9E,El Lucho,Micro,I5610.01,Restaurantes y picanterías,2020-11-05,2026-01-31,Guayas,Guayaquil,-2.206804,-79.829174,Auto-gestionado
DEU-04062486,Don Pancho Express,Micro,G4541.01,Venta y repuestos de motos,2020-05-07,2026-03-30,Guayas,Guayaquil,-2.216212,-79.855871,Auto-gestionado
DEU-7BA78339,Mi Segundo Plus,Micro,G4773.01,Bazares y papelerías,2024-03-04,2026-03-25,Santa Elena,Santa Elena,-2.084613,-80.895162,Auto-gestionado
DEU-0AF1F09C,La Manuelito Center,Micro,I5630.01,Cafeterías y panaderías,2025-07-03,2026-03-08,Pichincha,Quito,-0.181349,-78.455153,Auto-gestionado
DEU-7F7E003E,Farmacia Sana Plus,Micro,G4774.01,Farmacias y artículos médicos,2022-02-04,2026-03-31,Santo Domingo,Santo Domingo,-0.345509,-79.02477,Lorena Dávila
DEU-656F87C1,Tía Carmita Market,Micro,G4711.01,Tiendas de abarrotes y víveres,2025-03-23,2026-03-13,Guayas,Guayaquil,-2.099297,-79.899534,Auto-gestionado
DEU-02A16839,Boutique Pedrito Express,Micro,G4771.01,Boutiques y ropa,2023-07-11,2026-03-28,Guayas,Guayaquil,-2.158586,-79.880877,Mateo Pérez
DEU-C770B55D,El Beto,Micro,G4721.01,Fruterías y mercados,2024-03-17,2026-03-27,El Oro,Machala,-3.204364,-80.001215,Auto-gestionado
DEU-8850B3AC,Tío Martita,Micro,I5610.01,Restaurantes y picanterías,2023-06-27,2026-03-28,Chimborazo,Riobamba,-1.632589,-78.587679,Auto-gestionado
DEU-09DA48B2,Super Kléber Plus,Grande,I5630.01,Cafeterías y panaderías,2025-12-06,2026-03-23,Guayas,Guayaquil,-2.101678,-79.937237,Iván Moreno
DEU-2CC78FCE,Mi Jorgito,Micro,S9602.01,Peluquerías y salones de belleza,2023-06-27,2026-02-19,Azuay,Cuenca,-2.84498,-79.047384,Auto-gestionado
DEU-E63C0632,Don Anita Plus,Micro,G4711.01,Tiendas de abarrotes y víveres,2022-04-21,2026-03-31,Esmeraldas,Esmeraldas,0.953347,-79.592965,Auto-gestionado
DEU-119C9D86,El Mayra Market,Pequeña,I5610.03,Bares y cantinas,2021-09-29,2026-03-25,Los Ríos,Babahoyo,-1.81664,-79.581035,Andrea Vásconez
DEU-0F2B81F8,Don Mayra Plus,Micro,I5610.01,Restaurantes y picanterías,2025-01-03,2026-03-24,Tungurahua,Ambato,-1.263292,-78.764402,Auto-gestionado
DEU-0E8C6471,Tío Lucho,Micro,I5610.02,Comida rápida y food trucks,2025-12-06,2026-03-03,Guayas,Guayaquil,-2.15653,-80.042899,Auto-gestionado
DEU-D31C7E7C,Doña Rosita Market,Micro,I5610.03,Bares y cantinas,2024-04-19,2026-03-27,Pichincha,Quito,-0.244699,-78.489418,Paola Intriago
DEU-750A8A42,Super Juanito,Micro,G4711.01,Tiendas de abarrotes y víveres,2021-05-03,2026-03-26,Chimborazo,Riobamba,-1.622687,-78.552894,Auto-gestionado
DEU-3AB2DEB7,Tía Jorgito Mini,Micro,I5610.02,Comida rápida y food trucks,2024-06-25,2026-02-25,Imbabura,Ibarra,0.341856,-78.07524,Iván Moreno
DEU-00ECE948,Mi Pedrito,Micro,G4773.01,Bazares y papelerías,2025-03-04,2026-02-17,Guayas,Guayaquil,-2.153327,-80.040686,Auto-gestionado
DEU-DB4E8762,Mi Fanny Center,Micro,S9601.01,Lavanderías y tintorerías,2025-08-16,2026-03-21,Azuay,Cuenca,-2.954423,-79.128501,Auto-gestionado
DEU-4BAE1A7A,Mi Manuelito,Micro,G4711.01,Tiendas de abarrotes y víveres,2026-01-18,2026-03-13,Tungurahua,Ambato,-1.38343,-78.532337,Esteban Ruiz
DEU-FC1C664C,El Chabela,Micro,G4721.01,Fruterías y mercados,2024-03-03,2026-03-01,Tungurahua,Ambato,-1.344117,-78.62069,Auto-gestionado
DEU-FA1F32EE,Don Nelly Mini,Mediana,I5630.01,Cafeterías y panaderías,2023-10-20,2026-03-06,Pichincha,Quito,-0.175866,-78.484078,Fernanda Ortiz
DEU-4990BF7E,Tío Juanito Plus,Micro,G4721.01,Fruterías y mercados,2024-10-24,2026-03-27,Santa Elena,Santa Elena,-2.221639,-80.769486,Auto-gestionado
DEU-8604918A,Tío Juanito Mini,Mediana,G4719.01,Comercio mixto (bazar + abarrote),2023-02-07,2026-03-31,Pichincha,Quito,-0.183892,-78.465794,Carlos Mendoza
DEU-A44F7449,Coop. Trans Vencedores,Micro,H4922.01,"Transporte (taxis, cooperativas)",2022-09-17,2026-02-28,Manabí,Portoviejo,-1.001712,-80.553681,Auto-gestionado
DEU-75211595,Mi Jorgito,Micro,G4711.01,Tiendas de abarrotes y víveres,2024-10-03,2026-03-30,Santo Domingo,Santo Domingo,-0.347044,-79.191521,Auto-gestionado
DEU-7FE99E84,Don Juanito Plus,Pequeña,I5630.01,Cafeterías y panaderías,2023-11-05,2026-03-21,Loja,Loja,-4.005381,-79.179523,Natalia Rosales
DEU-14B412C9,Doña Martita Express,Micro,G4711.01,Tiendas de abarrotes y víveres,2025-11-04,2026-02-22,Loja,Loja,-3.836843,-79.105852,Iván Moreno
DEU-8017D931,Tío Pedrito,Micro,G4711.01,Tiendas de abarrotes y víveres,2023-04-22,2026-03-31,Guayas,Guayaquil,-2.24166,-79.964048,Auto-gestionado
DEU-F43FBD1F,Doña Segundo Plus,Micro,I5610.01,Restaurantes y picanterías,2023-04-04,2026-03-27,Azuay,Cuenca,-2.859538,-79.010492,Auto-gestionado
DEU-D1ADF5C1,Boutique Pancho Plus,Micro,G4771.01,Boutiques y ropa,2024-05-03,2026-03-19,Imbabura,Ibarra,0.347145,-78.149207,Auto-gestionado
DEU-3E92EC93,Mi Gladys Express,Micro,C1071.01,Panaderías y pastelerías,2023-09-21,2026-03-26,El Oro,Machala,-3.233512,-79.97522,Kevin Jaramillo
DEU-B0F8B6AF,Doña Lucho Market,Micro,I5610.01,Restaurantes y picanterías,2023-01-13,2026-03-29,Pichincha,Quito,-0.054827,-78.423149,Jimena Salazar
DEU-9E3F5696,La Nelly Market,Mediana,I5610.01,Restaurantes y picanterías,2022-01-02,2025-12-09,Manabí,Portoviejo,-1.064059,-80.448867,Paola Intriago
DEU-AF76F6BC,Don Gladys,Micro,G4721.01,Fruterías y mercados,2024-03-14,2026-02-28,Los Ríos,Babahoyo,-1.784542,-79.610001,Auto-gestionado
DEU-AAF083EB,Mi Jorgito,Micro,S9602.01,Peluquerías y salones de belleza,2025-08-14,2026-03-22,Guayas,Guayaquil,-2.223469,-79.895385,Iván Moreno
DEU-AC31AC6A,Super Segundo Market,Micro,G4711.01,Tiendas de abarrotes y víveres,2024-12-11,2026-03-18,Santo Domingo,Santo Domingo,-0.462385,-78.967379,Auto-gestionado
DEU-CE236C15,Don Pedrito Mini,Micro,G4711.01,Tiendas de abarrotes y víveres,2025-03-07,2026-03-26,Pichincha,Quito,-0.234875,-78.434556,Auto-gestionado
DEU-E633AA40,El Kléber Plus,Micro,I5630.01,Cafeterías y panaderías,2020-06-30,2026-03-31,Guayas,Guayaquil,-2.155627,-79.925306,Auto-gestionado
DEU-D08A6DAC,La Nelly,Pequeña,I5630.01,Cafeterías y panaderías,2022-03-13,2026-03-26,Pichincha,Quito,-0.050984,-78.410923,Hilda Proaño
DEU-47DA54F4,La Beto Market,Micro,G4711.01,Tiendas de abarrotes y víveres,2020-11-17,2026-03-30,Guayas,Guayaquil,-2.282434,-79.96999,Auto-gestionado
DEU-9078E624,Mi Juanito,Micro,G4711.01,Tiendas de abarrotes y víveres,2025-02-09,2026-02-13,Pichincha,Quito,-0.257139,-78.438254,Auto-gestionado
DEU-043AFCD7,Tía Segundo,Pequeña,I5630.01,Cafeterías y panaderías,2025-07-25,2026-03-26,Pichincha,Quito,-0.137379,-78.506267,Mateo Pérez
DEU-52EBE119,Mi Pancho,Micro,G4711.01,Tiendas de abarrotes y víveres,2024-10-20,2026-03-29,Pichincha,Quito,-0.31578,-78.557404,Auto-gestionado
DEU-ECA08F72,Coop. Trans Vencedores Express,Micro,H4922.01,"Transporte (taxis, cooperativas)",2023-02-08,2026-03-17,Guayas,Guayaquil,-2.24302,-79.87413,Auto-gestionado
DEU-4D628EC3,Tía Carmita Express,Micro,I5610.01,Restaurantes y picanterías,2024-03-04,2026-03-24,Napo,Tena,-0.927331,-77.802562,Mateo Pérez
DEU-F4A1FEC6,La Pedrito Market,Micro,G4719.01,Comercio mixto (bazar + abarrote),2024-08-09,2026-03-29,Manabí,Portoviejo,-0.921501,-80.428081,Esteban Ruiz
DEU-E02081EE,Tío Carmita Express,Micro,G4719.01,Comercio mixto (bazar + abarrote),2022-05-22,2026-03-31,Pichincha,Quito,-0.25881,-78.564313,Lorena Dávila
DEU-076AF048,Mi Fanny Market,Micro,G4711.01,Tiendas de abarrotes y víveres,2025-12-24,2026-03-21,Chimborazo,Riobamba,-1.67821,-78.639641,Lorena Dávila
DEU-8C7E5AB5,Tío Pancho Mini,Pequeña,I5610.03,Bares y cantinas,2023-11-01,2026-02-11,Guayas,Guayaquil,-2.11101,-79.860164,Iván Moreno
DEU-CF69F400,Super Chabela Express,Micro,G4773.01,Bazares y papelerías,2024-10-05,2026-03-13,Pichincha,Quito,-0.141586,-78.504304,Auto-gestionado
DEU-E22A3BFA,Super Segundo,Micro,I5610.02,Comida rápida y food trucks,2022-05-22,2026-02-14,Azuay,Cuenca,-2.904222,-78.965653,Auto-gestionado
DEU-238ECD46,El Nelly,Micro,I5610.01,Restaurantes y picanterías,2023-10-12,2026-03-23,Santo Domingo,Santo Domingo,-0.234652,-79.204238,Auto-gestionado
DEU-1CA8CE6C,La Kléber Mini,Micro,I5610.02,Comida rápida y food trucks,2024-10-22,2026-03-25,Imbabura,Ibarra,0.233937,-78.232207,Auto-gestionado
DEU-DC8147B8,Mi Martita Express,Micro,I5610.01,Restaurantes y picanterías,2024-08-24,2026-03-31,Tungurahua,Ambato,-1.237407,-78.594223,Auto-gestionado
DEU-BF3F26D8,El Juanito Express,Micro,I5610.01,Restaurantes y picanterías,2023-01-20,2026-03-31,Guayas,Guayaquil,-2.180084,-79.877058,Gabriel Aguilar
DEU-EAAED800,Tío Kléber,Micro,G4711.01,Tiendas de abarrotes y víveres,2024-11-24,2026-03-15,Pichincha,Quito,-0.199024,-78.547957,Auto-gestionado
DEU-FD21FF7D,Coop. Trans Vencedores Market,Micro,H4922.01,"Transporte (taxis, cooperativas)",2023-09-12,2026-03-27,Tungurahua,Ambato,-1.233098,-78.602653,Hilda Proaño
DEU-28A32F29,Farmacia Vida Express,Micro,G4774.01,Farmacias y artículos médicos,2025-10-13,2026-03-30,Guayas,Guayaquil,-2.33928,-79.759026,Auto-gestionado
DEU-DF0B4AD3,Doña Rosita,Micro,I5610.02,Comida rápida y food trucks,2022-07-03,2026-03-05,Pichincha,Quito,-0.326795,-78.384012,Auto-gestionado
DEU-56AF3BAD,Tío Anita Express,Pequeña,G4719.01,Comercio mixto (bazar + abarrote),2026-01-13,2026-03-18,Guayas,Guayaquil,-2.13435,-79.895478,Mateo Pérez
DEU-6CFCBBC2,Super Jorgito,Micro,G4719.01,Comercio mixto (bazar + abarrote),2025-04-23,2026-03-05,Tungurahua,Ambato,-1.243987,-78.476989,Auto-gestionado
DEU-FE49A2B4,El Segundo Mini,Micro,S9602.01,Peluquerías y salones de belleza,2024-11-05,2026-03-23,Manabí,Portoviejo,-1.06873,-80.541538,Natalia Rosales
DEU-3BCC803C,Super Jorgito Plus,Pequeña,G4711.01,Tiendas de abarrotes y víveres,2023-07-06,2026-02-17,Tungurahua,Ambato,-1.265287,-78.579673,Kevin Jaramillo
DEU-A38A7387,Super Pedrito,Micro,G4711.01,Tiendas de abarrotes y víveres,2025-11-25,2026-03-12,Pichincha,Quito,-0.210934,-78.527692,Gabriel Aguilar
DEU-A61568AD,El Mayra,Micro,G4711.01,Tiendas de abarrotes y víveres,2022-12-11,2026-03-10,Napo,Tena,-1.028477,-77.945263,Auto-gestionado
DEU-FAC8CD84,Tía Pedrito Center,Micro,I5610.03,Bares y cantinas,2024-07-24,2026-03-19,Azuay,Cuenca,-2.896797,-78.922927,Auto-gestionado
DEU-17364ABB,Tía Juanito Plus,Micro,I5610.01,Restaurantes y picanterías,2024-12-19,2026-03-22,Pichincha,Quito,-0.173786,-78.501728,Auto-gestionado
DEU-2519D7C9,Don Martita Express,Micro,G4761.01,Librerías y útiles escolares,2025-03-23,2026-03-17,Azuay,Cuenca,-3.045761,-79.062362,Auto-gestionado
DEU-7525C8C8,Don Anita,Micro,I5610.01,Restaurantes y picanterías,2023-10-23,2026-03-31,Pichincha,Quito,-0.155651,-78.457413,Auto-gestionado
DEU-EDB19573,Mi Nelly Express,Pequeña,G4721.01,Fruterías y mercados,2024-12-19,2026-03-13,Pichincha,Quito,-0.129262,-78.442716,Carlos Mendoza
DEU-B394C10D,Don Jorgito,Micro,I5630.01,Cafeterías y panaderías,2024-05-11,2026-03-24,El Oro,Machala,-3.190591,-79.881349,Iván Moreno
DEU-04A487CD,Tío Segundo Center,Micro,G4773.01,Bazares y papelerías,2021-06-26,2026-03-27,Pichincha,Quito,-0.221634,-78.529524,Auto-gestionado
DEU-360DA873,El Juanito Plus,Pequeña,I5610.02,Comida rápida y food trucks,2025-09-15,2026-01-29,Guayas,Guayaquil,-2.166908,-79.98064,Iván Moreno
